연번,행정구역,안심 주소,위도,경도,CCTV 수량
1,서울특별시 관악구,"AD037 1-1RZ 삼성동 산 83, 등산로길",37.4612,126.9294,1
2,서울특별시 관악구,JA016 2-4UC 미성동 1478-7,37.4781,126.9143,1
3,서울특별시 관악구,A0001 1-1RZ 쑥고개어린이공원 (서림동 1564-68),37.4759,126.9407,1
4,서울특별시 관악구,A0002 1-1RZ 쑥고개어린이공원 (서림동 1564-68),37.476,126.941,1
5,서울특별시 관악구,A0003 1-1R 백설어린이공원 (낙성대동 1606-11),37.4759,126.9536,1
6,서울특별시 관악구,A0004 1-1R 백설어린이공원 (낙성대동 1606-11),37.4761,126.9538,1
7,서울특별시 관악구,A0005 1-1R 신화어린이공원 (서림동 408-10),37.4769,126.9357,1
8,서울특별시 관악구,A0006 1-1R 봉림어린이공원 (서원동 1510-2),37.4827,126.9356,1
9,서울특별시 관악구,A0007 1-1R 약수어린이공원 (낙성대동 1510-19),37.474,126.9622,1
10,서울특별시 관악구,A0008 1-1RZ 해태어린이공원 (서림동 103-141),37.4725,126.9405,1
11,서울특별시 관악구,A0009 1-1RZ 해태어린이공원 (서림동 103-141),37.4727,126.9407,1
12,서울특별시 관악구,A0010 1-1RZ합실어린이공원 (삼성동 1704-4),37.4651,126.9269,1
13,서울특별시 관악구,A0011 1-1RZ 합실어린이공원 (삼성동 1704-4),37.465,126.9272,1
14,서울특별시 관악구,A0012 1-1R 미성동공원 (미성동 597-4와 597-116),37.4762,126.9195,1
15,서울특별시 관악구,A0013 1-1R 미성동공원 (미성동 597-4와 597-119),37.4764,126.9199,1
16,서울특별시 관악구,A0014 1-1RZ 색동공원 (신림동 1418-1와 1414-34),37.4864,126.9329,1
17,서울특별시 관악구,A0015 1-1R 상록공원 (남현동 602-196와 602-186),37.473,126.9802,1
18,서울특별시 관악구,A0016 1-1RZ 상록공원 (남현동 602-196와 602-203),37.4729,126.9804,1
19,서울특별시 관악구,A0017 1-1RZ 새싹공원 (중앙동 1512-9),37.4844,126.9498,1
20,서울특별시 관악구,A0018 1-1RZ 새싹공원 (중앙동 1512-9),37.4846,126.9495,1
21,서울특별시 관악구,A0019 1-1R 밤골공원 (인헌동 1642-4와 1643-10),37.474,126.9674,1
22,서울특별시 관악구,A0020 1-1R 청룡공원 (청룡동 1557-34와 1557-12),37.4778,126.9448,1
23,서울특별시 관악구,A0021 1-1R 보명공원 (난곡동 610-288와 610-297),37.4757,126.9258,1
24,서울특별시 관악구,A0022 1-1R 보명공원 (난곡동 610-288와 610-306),37.4755,126.9257,1
25,서울특별시 관악구,A1001 1-1R 국지어린이공원 (은천동 635-429),37.49,126.9406,1
26,서울특별시 관악구,A1002 1-1R 국지어린이공원 (은천동 635-429),37.4901,126.9404,1
27,서울특별시 관악구,A1003 1-1R 원당어린이공원 (인헌동 196-2),37.4746,126.9637,1
28,서울특별시 관악구,A1004 1-2RLZ 원당어린이공원 (인헌동 196-2),37.4748,126.9634,1
29,서울특별시 관악구,A1004 2-2SZ 원당어린이공원 (인헌동 196-2),37.4749,126.9633,1
30,서울특별시 관악구,A1005 1-1RZ 예촌어린이공원 (남현동 1083-1),37.4747,126.9769,1
31,서울특별시 관악구,A1006 1-1RZ 예촌어린이공원 (남현동 1083-1),37.4745,126.9766,1
32,서울특별시 관악구,A1007 1-1R 봉천어린이공원 (인헌동 1707-2),37.4692,126.9647,1
33,서울특별시 관악구,A1008 1-1RZ 새들어린이공원 (신림동 1441-42),37.4886,126.9256,1
34,서울특별시 관악구,A1009 1-1RZ 새들어린이공원 (신림동 1441-42),37.4886,126.9259,1
35,서울특별시 관악구,A1010 1-1RZ 교체어린이공원 (인헌동 196-193와 196-76),37.4735,126.9641,1
36,서울특별시 관악구,A1011 1-1RZ 탑골공원 (낙성대동 1510),37.4745,126.9612,1
37,서울특별시 관악구,A1012 1-1RZ 남부어린이공원 (신사동 483-14와 485-3),37.4848,126.9207,1
38,서울특별시 관악구,A1013 1-1R 남부어린이공원 (신사동 483-14와 485-3),37.4851,126.9205,1
39,서울특별시 관악구,A1014 1-1RL 무궁화공원 (난곡동 645-1),37.4696,126.9237,1
40,서울특별시 관악구,A1015 1-1R 송학어린이공원#1 (청룡동 877-21),37.4805,126.9491,1
41,서울특별시 관악구,A1016 1-1RL 비안어린이공원 (청룡동 1530-14와 1529-2),37.4806,126.9402,1
42,서울특별시 관악구,A1017 1-1R 서원어린이공원 (서원동 409-26와 409-279),37.4766,126.9333,1
43,서울특별시 관악구,A2001 1-1RZ 청룡산공원 (청룡동  556-89),37.4773,126.9494,1
44,서울특별시 관악구,A2002 1-1RZ 청룡산공원 (청룡동  556-91),37.477,126.9494,1
45,서울특별시 관악구,A2003 1-1RZ 까치어린이공원 (행운동 1678-1),37.4798,126.9594,1
46,서울특별시 관악구,A2004 1-1RZ 까치어린이공원 (행운동 1678-1),37.4798,126.9598,1
47,서울특별시 관악구,A2005 1-1R 신라창의어린이공원 (미성동 744-1),37.4735,126.9127,1
48,서울특별시 관악구,A2006 1-1RZ 국사봉어린이공원(보라매동 1511-5),37.49,126.9343,1
49,서울특별시 관악구,A2007 1-1R 은천어린이공원(은천동 635-309),37.4884,126.943,1
50,서울특별시 관악구,A2008 1-1RZ 한라어린이공원(미성동 750-39),37.4757,126.9148,1
51,서울특별시 관악구,A2009 1-1RZ 관악산공원 돌산화장실앞,37.4667,126.9471,1
52,서울특별시 관악구,A2010 1-1RZ 관악산공원 호수공원 #01,37.4585,126.947,1
53,서울특별시 관악구,A2011 1-1RZ 관악산공원 호수공원 #02,37.4589,126.9473,1
54,서울특별시 관악구,A2012 1-1R 맨발공원(대학동 208),37.4669,126.9443,1
55,서울특별시 관악구,A2013 1-1R 샘말공원#01(대학동 산 63-1),37.465,126.9385,1
56,서울특별시 관악구,A2014 1-1R 샘말공원#02(대학동 산 63-1),37.4646,126.9381,1
57,서울특별시 관악구,A2015 1-1RZ 난곡공원#01(난향동 산 105-12),37.4657,126.9172,1
58,서울특별시 관악구,A2016 1-1RZ 난곡공원#02(난향동 산 105-12),37.466,126.9172,1
59,서울특별시 관악구,A2017 1-1RZ 난우공원#01(미성동 산 124-6),37.4774,126.9227,1
60,서울특별시 관악구,A2018 1-1RZ 난우공원#02(미성동 산 124-6),37.4777,126.9222,1
61,서울특별시 관악구,A2019 1-1RZ 선우공원#01(미성동 산 117-3),37.4688,126.913,1
62,서울특별시 관악구,A2020 1-1RZ 선우공원#02(미성동 산 117-3),37.4666,126.9141,1
63,서울특별시 관악구,A2021 1-1RZ 신림6배수지공원#01(삼성동 336-8),37.4682,126.9265,1
64,서울특별시 관악구,A2022 1-1RZ 신림6배수지공원#02(삼성동 336-8),37.4683,126.9259,1
65,서울특별시 관악구,A2023 1-1RZ 봉천11배수지공원(인헌동 산3-8),37.4691,126.97,1
66,서울특별시 관악구,A2024 1-1RZ 배수지공원(삼성동 1713-6),37.4633,126.9272,1
67,서울특별시 관악구,A2025 1-1RZ 상도근린공원#01(보라매동 산104-9),37.4889,126.9381,1
68,서울특별시 관악구,A2026 1-1RZ 상도근린공원#02(보라매동 산104-9),37.4894,126.938,1
69,서울특별시 관악구,A2027 1-1RZ 상도근린공원#03(보라매동 산104-9),37.4893,126.9383,1
70,서울특별시 관악구,A2028 1-1R 중앙공원#01(중앙동 890-1),37.4844,126.9485,1
71,서울특별시 관악구,A2029 1-1R 중앙공원#02(중앙동 890-1),37.4843,126.9482,1
72,서울특별시 관악구,A2030 1-1S 관악산공원 주차장1,37.4683,126.9456,1
73,서울특별시 관악구,A2032 1-1RZ 관악산공원 피크닉숲,37.4618,126.9482,1
74,서울특별시 관악구,A2033 1-1RZ 관악산공원 야외식물원,37.4609,126.9482,1
75,서울특별시 관악구,A2034 1-2RZ 관악산공원 제1야영장,37.458,126.9464,1
76,서울특별시 관악구,A2034 2-2SZ 관악산공원 제1야영장,37.4574,126.9463,1
77,서울특별시 관악구,A2035 1-1RZ 관악산공원 제2야영장,37.4556,126.9454,1
78,서울특별시 관악구,"A2036 1-1RZ 장군봉근린공원1(메인,청룡동 산151-139)",37.4797,126.9372,1
79,서울특별시 관악구,"A2037 1-1RZ 장군봉근린공원2(서브,청룡동 산151-139)",37.4798,126.9364,1
80,서울특별시 관악구,"A2038 1-1RZ 장군봉근린공원3(서브,청룡동 산151-139)",37.4805,126.9369,1
81,서울특별시 관악구,A2039 1-1RZ 양산어린이공원(삼성동 395-35),37.4737,126.9327,1
82,서울특별시 관악구,A2040 1-1R 군아파트어린이공원(남현동 602-282),37.4718,126.9791,1
83,서울특별시 관악구,A2041 1-1RZ 한뼘동래공원(은천동 900-65),37.4847,126.9449,1
84,서울특별시 관악구,A2042 1-1RZ 상도근린공원(보라매동 산133-10),37.4927,126.9351,1
85,서울특별시 관악구,A3001 1-1RZ 남강창의어린이공원(난곡동 1678-9),37.4734,126.924,1
86,서울특별시 관악구,A3002 1-1RZ 일삼별공원 농구코트(난곡동 산 90-3),37.4667,126.9237,1
87,서울특별시 관악구,A3003 1-1RZ 관음사지구 둘레길화장실앞(남현동 산 57-4),37.4699,126.9779,1
88,서울특별시 관악구,A3004 1-1RZ 무장애등산로#1 (대학동 산 56-2),37.4564,126.9461,1
89,서울특별시 관악구,A3005 1-1RZ 선우공원 생태지역 진입부 (미성동 산 117-3),37.4692,126.9127,1
90,서울특별시 관악구,A3007 1-1R 신림근린공원 운동시설 (미성동 산 197-31),37.4802,126.9158,1
91,서울특별시 관악구,A3008 1-1RZ 상도근린공원 약수터주변 (보라매동 산 118-6),37.4918,126.9363,1
92,서울특별시 관악구,A3009 1-1RZ 상도근린공원 맷돌체육회 (은천동 산 103-3),37.492,126.9403,1
93,서울특별시 관악구,A3010 1-1RZ 상도근린공원 봉현배수지 (성현동 산 1718-9),37.4934,126.9452,1
94,서울특별시 관악구,A3011 1-1RZ유아숲체험장 진입부분(청룡동 산 175-46),37.4747,126.9494,1
95,서울특별시 관악구,A3012 1-1RZ 유아숲체험장 숲속쉼터(청룡동 산 175-6),37.4747,126.9482,1
96,서울특별시 관악구,A3013 1-1RZ 청룡산공원 휴게테크(청룡동 산 175-27),37.4752,126.9516,1
97,서울특별시 관악구,A3014 1-1RZ 청룡산공원 운동공간(청룡산 산 175-27),37.4754,126.9511,1
98,서울특별시 관악구,A3015 1-1RZ 까치산근린공원 경로당 및 놀이터앞(행운동 산 66-3),37.4765,126.9696,1
99,서울특별시 관악구,A3016 1-1RZ 까치산근린공원 화장실앞(행운동 산 66-3),37.4765,126.9701,1
100,서울특별시 관악구,A3017 1-1RZ 예촌어린이공원(남현동 1083-1),37.4746,126.9766,1
101,서울특별시 관악구,A3018 1-1R 관악산공원 주차장(대학동 210),37.4683,126.9452,1
102,서울특별시 관악구,A9001 1-1RZ 상도근린공원 (은천동 산103-61와 국사봉체육관),37.4916,126.9412,1
103,서울특별시 관악구,A9002 1-1RZ 상도근린공원 (은천동 산103-61와 국사봉체육관),37.4913,126.9411,1
104,서울특별시 관악구,A9003 1-1RZ 국회단지공원 (은천동 635-37와 635-80),37.4903,126.9429,1
105,서울특별시 관악구,A9004 1-1RZ 국회단지공원 (은천동 635-37와 635-80),37.4902,126.9433,1
106,서울특별시 관악구,A9005 1-1R 새숲공원 (조원동 539-14와 538-39),37.4823,126.9133,1
107,서울특별시 관악구,A9006 1-1RZ 새숲공원 (조원동 539-14와 539-13),37.4825,126.913,1
108,서울특별시 관악구,A9007 1-1RZ 약수어린이공원 (미성동 1685와 1686),37.4731,126.9124,1
109,서울특별시 관악구,A9008 1-1R 미도공원 (난향동 675-200와 675-199),37.463,126.9152,1
110,서울특별시 관악구,A9009 1-1RZ 미도공원 (난향동 675-200와 675-211),37.4627,126.9154,1
111,서울특별시 관악구,A9010 1-1RZ 호박골공원 (신원동 1580-22와 1580-25),37.4819,126.9241,1
112,서울특별시 관악구,A9011 1-1RZ 태양공원 (대학동 1542-1와 1542-2),37.4684,126.9366,1
113,서울특별시 관악구,A9012 1-GS 낙성대공원 관리사무소 (낙성대동 228),37.472,126.9597,1
114,서울특별시 관악구,A9012 2-GS 낙성대공원 관리사무소 (낙성대동 228),37.4724,126.96,1
115,서울특별시 관악구,A9012 3-GS 낙성대공원 관리사무소 (낙성대동 228),37.4726,126.9598,1
116,서울특별시 관악구,A9012 4-GS 낙성대공원 관리사무소 (낙성대동 228),37.4721,126.9592,1
117,서울특별시 관악구,A9012 5-GS 낙성대공원 관리사무소 (낙성대동 228),37.472,126.9593,1
118,서울특별시 관악구,A9012 6-GS 낙성대공원 관리사무소 (낙성대동 228),37.4713,126.9586,1
119,서울특별시 관악구,A9012 7-GS 낙성대공원 관리사무소 (낙성대동 228),37.4712,126.9585,1
120,서울특별시 관악구,A9012 8-GS 낙성대공원 관리사무소 (낙성대동 228),37.4712,126.9589,1
121,서울특별시 관악구,A9012 9-GS 낙성대공원 관리사무소 (낙성대동 228),37.4711,126.959,1
122,서울특별시 관악구,A9012 A-GS 낙성대공원 관리사무소 (낙성대동 228),37.4711,126.9601,1
123,서울특별시 관악구,A9012 B-GS 낙성대공원 관리사무소 (낙성대동 228),37.4709,126.9604,1
124,서울특별시 관악구,A9012 C-GS 낙성대공원 관리사무소 (낙성대동 228),37.4708,126.9608,1
125,서울특별시 관악구,A9012 D-GS 낙성대공원 관리사무소 (낙성대동 228),37.4706,126.9613,1
126,서울특별시 관악구,A9012 E-GS 낙성대공원 관리사무소 (낙성대동 228),37.471,126.9614,1
127,서울특별시 관악구,A9012 F-GS 낙성대공원 관리사무소 (낙성대동 228),37.4712,126.9609,1
128,서울특별시 관악구,A9012 G-GS 낙성대공원 관리사무소 (낙성대동 228),37.4709,126.9609,1
129,서울특별시 관악구,"A9027 1-1R [줌인반대] 산불감시(연주대,삼성동)",37.4424,126.9653,1
130,서울특별시 관악구,"A9028 1-1R 산불감시(모자봉,대학동)",37.4524,126.9467,1
131,서울특별시 관악구,"A9029 1-1R 산불감시(삼성산,삼성동)",37.4503,126.9342,1
132,서울특별시 관악구,"A9030 1-1R 산불감시(서울대,대학동)",37.4669,126.9552,1
133,서울특별시 관악구,AA001 1-1R 장군봉소공원(서원동 94-252),37.4782,126.939,1
134,서울특별시 관악구,AA002 1-1RZ 상도근린공원#1(성현동 1712-6),37.4912,126.9536,1
135,서울특별시 관악구,AA003 1-2R 당곡어린이공원(보라매동 662-122),37.4887,126.9336,1
136,서울특별시 관악구,AA003 2-2S 당곡어린이공원(보라매동 662-122),37.4888,126.9336,1
137,서울특별시 관악구,AA004 1-1RLZ 고시자연공원(대학동 255-258),37.4641,126.9353,1
138,서울특별시 관악구,AA005 1-1RZ 대협어린이공원(미성동 746-32),37.4748,126.9134,1
139,서울특별시 관악구,AA006 1-1R 영락어린이공원 (청룡동 1555-16),37.4768,126.9438,1
140,서울특별시 관악구,AA007 1-1R 인헌어린이공원(인헌동 196-240),37.4755,126.9625,1
141,서울특별시 관악구,AA008 1-1R 관악산둘레길광신고후문(난곡동 산87-14),37.4658,126.9238,1
142,서울특별시 관악구,AA009 1-1RZ 선우공원#03(미성동 산117-13),37.4697,126.9126,1
143,서울특별시 관악구,AA010 1-1RZ 나들목공원(대학동 218-1),37.4694,126.9447,1
144,서울특별시 관악구,AA011 1-1RZ 나들목공원(대학동 218-1),37.469,126.9442,1
145,서울특별시 관악구,AA012 1-1RZ 동네뒷산공원(대학동 산24-9),37.468,126.94,1
146,서울특별시 관악구,AA013 1-1RZ 동네뒷산공원(대학동 산24-9),37.4679,126.9404,1
147,서울특별시 관악구,AB001 1-1R 문성어린이공원#1(미성동 산 197-60),37.4778,126.9168,1
148,서울특별시 관악구,AB002 1-1RZ 문성어린이공원#2(미성동 산 197-102),37.4777,126.9188,1
149,서울특별시 관악구,AB003 1-1RL 문성어린이공원#3(미성동 597-47),37.4777,126.9198,1
150,서울특별시 관악구,AB004 1-1RZ 문성어린이소공원 (조원동 1661-15),37.4819,126.9029,1
151,서울특별시 관악구,AB005 1-1R 장미어린이공원 (행운동 148-103),37.4792,126.9624,1
152,서울특별시 관악구,AB006 1-1RL 선봉어린이공원 (은천동 942-29),37.4851,126.9395,1
153,서울특별시 관악구,AB007 1-1RZ 해바라기어린이공원 (삼성동 321-5),37.462,126.9303,1
154,서울특별시 관악구,AB008 1-1RZ 난우어린이집공원 (미성동 1482-1),37.4802,126.9141,1
155,서울특별시 관악구,AB009 1-1R 난곡어린이공원 (미성동 1563-56),37.474,126.9153,1
156,서울특별시 관악구,AB010 1-1RZ 낙성대지구 (낙성대동 산56-3),37.4757,126.9561,1
157,서울특별시 관악구,"AB011 1-1RZ 관악산공원 (대학동 산32-23,야외식물원 주변 둘레길 입구)",37.4635,126.9481,1
158,서울특별시 관악구,AB012 1-1R 난곡공원 (난향동 산105-12),37.4658,126.9173,1
159,서울특별시 관악구,AB013 1-1RZ 생태체험길 입구 (삼성동 산68-2),37.4632,126.9337,1
160,서울특별시 관악구,AB014 1-1RLZ 모래내공원#1(낙성대동 1613-19),37.4778,126.9554,1
161,서울특별시 관악구,AB015 1-1RZ 모래내공원#2(낙성대동 1613-19),37.4777,126.9558,1
162,서울특별시 관악구,AB017 1-1RZ 문성어린이공원#4(미성동 산 197-3),37.4777,126.9177,1
163,서울특별시 관악구,AB018 1-1RZ 안전한산책로#2(난향동 산 102-12),37.4577,126.9186,1
164,서울특별시 관악구,AB019 1-1RZ 안전한산책로#3(난향동 산 102-12),37.4575,126.9204,1
165,서울특별시 관악구,AC001 1-1R 낙성대야외놀이마당 (낙성대동 291-8),37.4739,126.96,1
166,서울특별시 관악구,AC002 1-1R 낙성대야외놀이마당 (낙성대동 287),37.4732,126.9597,1
167,서울특별시 관악구,AC003 1-1R 학다리어린이공원 (보라매동 647-175),37.4888,126.9376,1
168,서울특별시 관악구,AC004 1-1RZ 사우촌어린이공원 (대학동 1555-1),37.4675,126.9342,1
169,서울특별시 관악구,AC005 1-1RZ 미림어린이공원 (대학동 254-256),37.4665,126.9353,1
170,서울특별시 관악구,AC006 1-1RZ 난우어린이공원 (난곡동 652-160),37.4664,126.9219,1
171,서울특별시 관악구,AC007 1-1RZ 동네뒷산공원(난곡동 661-62),37.4652,126.9208,1
172,서울특별시 관악구,AD001 1-1RZ 관악산 등산로 입구 (남현동 496-3),37.471,126.9724,1
173,서울특별시 관악구,AD002 1-1RZ 생태육교 남쪽 (남현동 산55-5),37.4752,126.9709,1
174,서울특별시 관악구,AD003 1-1RZ 관음사 주변 (남현동 산57-47),37.468,126.9769,1
175,서울특별시 관악구,AD004 1-1RZ 무장애등산로#2 (대학동 산52),37.4565,126.9471,1
176,서울특별시 관악구,AD005 1-1RZ 무장애등산로#3 (대학동 산52),37.4547,126.9481,1
177,서울특별시 관악구,AD006 1-1RZ 상도근린공원 (보라매동 산133-20),37.4925,126.935,1
178,서울특별시 관악구,AD007 1-1RZ 상도근린공원 유아숲체험장 (성현동 1712-22),37.4937,126.9483,1
179,서울특별시 관악구,AD008 1-1RZ 상도근린공원#2 (성현동 1712-6),37.4913,126.9521,1
180,서울특별시 관악구,AD009 1-1RZ 장군봉근린공원 배드민턴장 01 (서원동 산 170-137),37.4814,126.9347,1
181,서울특별시 관악구,AD010 1-1RZ 상도근린공원 국사봉체육관 (은천동 산103-75),37.492,126.9415,1
182,서울특별시 관악구,AD011 1-1RZ 인헌자락공원 (인헌동 산3-6),37.4681,126.9702,1
183,서울특별시 관악구,AD012 1-1RZ 군인APT 둘레길 (인헌동 180-255),37.4682,126.9694,1
184,서울특별시 관악구,AD013 1-1RZ 까치산근린공원 (청림동 1706-2),37.4851,126.9622,1
185,서울특별시 관악구,AD014 1-1RZ 장군봉근린공원 북쪽등산로 입구 (청룡동 산149-8),37.4815,126.9367,1
186,서울특별시 관악구,AD015 1-1R 충효어린이공원 (청룡동 1526-1),37.4812,126.9413,1
187,서울특별시 관악구,AD016 1-1RZ 장군봉근린공원 입구 (서원동 산1-270),37.4789,126.939,1
188,서울특별시 관악구,AD018 1-1R 송학어린이공원#2 (청룡동 877-21),37.4802,126.9493,1
189,서울특별시 관악구,AD019 1-1RZ 까치산근린공원 미술고 뒤 (행운동 1690-172),37.4769,126.9677,1
190,서울특별시 관악구,AD020 1-1RZ 생태육교 북쪽 (행운동 산66-2),37.4757,126.9707,1
191,서울특별시 관악구,AD021 1-1RZ 까치산근린공원 (행운동 100-2),37.4833,126.9603,1
192,서울특별시 관악구,AD022 1-1RZ 까치산근린공원#4 (행운동 산67-32),37.4803,126.965,1
193,서울특별시 관악구,AD023 1-1RZ 안전한산책로#1 (난향동 산105-11),37.4589,126.9174,1
194,서울특별시 관악구,AD024 1-1RZ 안전한산책로#4 (난향동 산102-7),37.4582,126.9215,1
195,서울특별시 관악구,AD025 1-1RZ 안전한산책로#5 (난향동 1735-12),37.4593,126.9223,1
196,서울특별시 관악구,AD026 1-1R 선우공원#04 (미성동 산 117-20),37.4676,126.9135,1
197,서울특별시 관악구,AD027 1-1R 관악산공원 (인헌동 산 29-4),37.4683,126.9638,1
198,서울특별시 관악구,"AD028 1-1RZ 장군봉근린공원 (청룡동 1531-38, 봉림중학교 후문앞)",37.4816,126.9381,1
199,서울특별시 관악구,"AD029 1-1RZ 낙성대공원 (낙성대동 232-2, 반려견놀이터)",37.4708,126.9592,1
200,서울특별시 관악구,"AD030 1-1RZ 대학동 210, 화장실입구",37.468,126.9455,1
201,서울특별시 관악구,"AD032 1-1R 청룡동 산 151-139, 장군봉 근린공원",37.4796,126.9375,1
202,서울특별시 관악구,"AD033 1-1RZ  남현동 1068-31, 신앙촌상회 앞",37.4753,126.9764,1
203,서울특별시 관악구,"AD034 1-1RZ 미성동 산 191-16, 문성터널 위 등산로길",37.4787,126.9202,1
204,서울특별시 관악구,"AD035 1-1RZ 미성동 산 197-5, 문성터널 차량 출입로쪽 등산로길",37.4784,126.9186,1
205,서울특별시 관악구,"AD036 1-1RZ 미성동 1707-1, 호림박물관 옆 등산로길",37.4801,126.9189,1
206,서울특별시 관악구,AE001 1-1RZ 신원동 산 159-44,37.4762,126.9254,1
207,서울특별시 관악구,AE002 1-1RZ 보라매동 산 104-1,37.4895,126.939,1
208,서울특별시 관악구,AE003 1-1RZ 청룡동 산 149-8,37.4808,126.9357,1
209,서울특별시 관악구,AE004 1-1RZ 삼성동 1714(녹지연결로#01),37.4612,126.9249,1
210,서울특별시 관악구,AE005 1-1RZ 삼성동 1714(녹지연결로#02),37.4614,126.9249,1
211,서울특별시 관악구,AE006 1-1RZ 신사동 498(공원내#01),37.4883,126.9149,1
212,서울특별시 관악구,AE007 1-2RZ 신사동 498(공원내#02),37.4862,126.9114,1
213,서울특별시 관악구,AE007 2-2SZ 신사동 498(공원내#03),37.4862,126.9115,1
214,서울특별시 관악구,AE008 1-3RZ 삼성동 산 57-14 (삼성산성지),37.4568,126.9294,1
215,서울특별시 관악구,AE008 2-3SZ 삼성동 산 57-14 (삼성산성지),37.4567,126.9295,1
216,서울특별시 관악구,AE008 3-3SZ 삼성동 산 57-14 (삼성산성지),37.457,126.9295,1
217,서울특별시 관악구,AE009 1-3RZ 청룡동 산 175-40 (청룡산공원입구),37.4765,126.9509,1
218,서울특별시 관악구,AE009 2-3SZ 청룡동 산 175-40 (청룡산공원입구),37.4765,126.951,1
219,서울특별시 관악구,AE009 3-3SZ 청룡동 산 175-40 (청룡산공원입구),37.4765,126.9509,1
220,서울특별시 관악구,AE010 1-1RZ 난곡동 655-104 (오성어린이공원),37.4679,126.9208,1
221,서울특별시 관악구,AE011 1-1RZ 신사동 501-30 (새빛어린이공원),37.4862,126.9153,1
222,서울특별시 관악구,AE012 1-1RZ 서림동 98-402 (서광어린이공원),37.4753,126.9428,1
223,서울특별시 관악구,AE014 1-1RZ 대학동 1716-1 (목화어린이공원),37.4679,126.9424,1
224,서울특별시 관악구,AF001 1-1R 남현동 1059-13 (남현예술공원),37.4764,126.9801,1
225,서울특별시 관악구,AF002 1-1RZ 남현동 1059-13 (남현예술공원),37.4763,126.9808,1
226,서울특별시 관악구,AF003 1-1RZ 대학동 205-1 일대(관악산 모험숲),37.4623,126.9478,1
227,서울특별시 관악구,AF004 1-1RZ 대학동 205-1 일대(관악산 모험숲),37.4627,126.948,1
228,서울특별시 관악구,AF005 1-1RZ 대학동 205-1 일대(관악산 모험숲),37.4627,126.9485,1
229,서울특별시 관악구,AF006 1-1RZ 대학동 205-1 일대(관악산 모험숲),37.4622,126.9485,1
230,서울특별시 관악구,AF007 1-1RZ 삼성동 산 86-6 (관악도시농업공원),37.4647,126.9276,1
231,서울특별시 관악구,AF008 1-1RZ 삼성동 산 86-6 (관악도시농업공원),37.4641,126.9278,1
232,서울특별시 관악구,AF009 1-1RZ 난곡동 산 132-2 (배수지공원 관악산둘레길),37.4694,126.926,1
233,서울특별시 관악구,AF010 1-1RZ 난곡동 1678-12 (남강고등학교 관악산둘레길),37.4735,126.9247,1
234,서울특별시 관악구,AF011 1-1RZ 조원동 1677-3 (시민의 숲 산책로),37.4848,126.9059,1
235,서울특별시 관악구,AF012 1-1RZ 조원동 1677-4 (시민의 숲 산책로),37.485,126.9069,1
236,서울특별시 관악구,AF013 1-1RZ 성현동 1712-6 (성현드림숲공원),37.4921,126.9517,1
237,서울특별시 관악구,AF014 1-1RZ 남현동 산 64 (관음사 관악산둘레길),37.4685,126.9758,1
238,서울특별시 관악구,AF015 1-1RZ 삼성동 산 58-20 (제2구민운동장 위 산책로),37.4573,126.9332,1
239,서울특별시 관악구,AF016 1-1R 신림 68-4 (산책로입구 보신탕집),37.4652,126.9337,1
240,서울특별시 관악구,AF017 1-1RZ 삼성동 산68-2 (산책로입구 운동기구),37.4635,126.9334,1
241,서울특별시 관악구,AF018 1-1RZ 대학동 산 61-1 (보덕사 앞),37.4621,126.9388,1
242,서울특별시 관악구,AF019 1-1RZ 서원동 산 163-7 (장군봉 산책로),37.4789,126.9371,1
243,서울특별시 관악구,AF020 1-1RZ 낙성대동 산 56-3 (낙성대 구민체육관),37.4761,126.9575,1
244,서울특별시 관악구,AF021 1-4RZ 삼성동 산 57-14 (삼성산성지),37.4576,126.9294,1
245,서울특별시 관악구,AF021 2-4SZ 삼성동 산 57-14 (삼성산성지),37.4577,126.9294,1
246,서울특별시 관악구,AF021 3-4SZ 삼성동 산 57-14 (삼성산성지),37.4576,126.9293,1
247,서울특별시 관악구,AF021 4-4SZ 삼성동 산 57-14 (삼성산성지),37.4575,126.9294,1
248,서울특별시 관악구,AF022 1-3R 청룡동 1538-36 (으뜸어린이공원),37.4782,126.9405,1
249,서울특별시 관악구,AF022 2-3SZ 청룡동 1538-36  (으뜸어린이공원),37.4782,126.9403,1
250,서울특별시 관악구,AF022 3-3SZ 청룡동 1538-36  (으뜸어린이공원),37.4781,126.9405,1
251,서울특별시 관악구,AF023 1-3R 청룡동 1538-25 (으뜸어린이공원),37.4785,126.9411,1
252,서울특별시 관악구,AF023 2-3SZ 청룡동 1538-25 (으뜸어린이공원),37.4786,126.941,1
253,서울특별시 관악구,AF023 3-3SZ 청룡동 1538-25 (으뜸어린이공원),37.4785,126.9411,1
254,서울특별시 관악구,AF024 1-3R 청룡동 1538-20 (으뜸어린이공원),37.4787,126.9414,1
255,서울특별시 관악구,AF024 2-3SZ 청룡동 1538-20 (으뜸어린이공원),37.4788,126.9413,1
256,서울특별시 관악구,AF024 3-3SZ 청룡동 1538-20 (으뜸어린이공원),37.4787,126.9415,1
257,서울특별시 관악구,AF025 1-3R 청룡동 1587-7 (일선어린이공원),37.478,126.9493,1
258,서울특별시 관악구,AF025 2-3SZ 청룡동 1587-7 (일선어린이공원),37.4781,126.9494,1
259,서울특별시 관악구,AF025 3-3SZ 청룡동 1587-7 (일선어린이공원),37.478,126.9493,1
260,서울특별시 관악구,AF026 1-3RZ 삼성동 336-8 (배수지공원 앞 다리),37.4679,126.9255,1
261,서울특별시 관악구,AF026 2-3SZ 삼성동 336-8 (배수지공원 앞 다리),37.468,126.9254,1
262,서울특별시 관악구,AF026 3-3SZ 삼성동 336-8 (배수지공원 앞 다리),37.4679,126.9256,1
263,서울특별시 관악구,AF027 1-4RZ 삼성동 366 (원신마을마당),37.4698,126.9293,1
264,서울특별시 관악구,AF027 2-4SZ 삼성동 366 (원신마을마당),37.4698,126.9292,1
265,서울특별시 관악구,AF027 3-4SZ 삼성동 366 (원신마을마당),37.4699,126.9294,1
266,서울특별시 관악구,AF027 4-4SZ 삼성동 366 (원신마을마당),37.4698,126.9293,1
267,서울특별시 관악구,AF028 1-4RZ 은천동 962 (은천마을마당),37.4862,126.9358,1
268,서울특별시 관악구,AF028 2-4SZ 은천동 962 (은천마을마당),37.4862,126.9357,1
269,서울특별시 관악구,AF028 3-4SZ 은천동 962 (은천마을마당),37.4863,126.9359,1
270,서울특별시 관악구,AF028 4-4SZ 은천동 962 (은천마을마당),37.4862,126.9359,1
271,서울특별시 관악구,AF029 1-3R 남현동 612-52 (홈플러스 옆),37.4722,126.9822,1
272,서울특별시 관악구,AF029 2-3S 남현동 612-52 (홈플러스 옆),37.4721,126.9821,1
273,서울특별시 관악구,AF029 3-3S 남현동 612-52 (홈플러스 옆),37.4723,126.9824,1
274,서울특별시 관악구,AF030 1-2SZ 청룡동 1538-28 (으뜸어린이공원),37.4784,126.9408,1
275,서울특별시 관악구,AF030 2-2SZ 청룡동 1538-28 (으뜸어린이공원),37.4783,126.9408,1
276,서울특별시 관악구,AG001 1-1RZ 청룡동 1547-51 (e편한세상 302동 옆 공원),37.4772,126.941,1
277,서울특별시 관악구,AG002 1-1RZ 청룡동 1547-51 (e편한세상 302동 옆 공원),37.4771,126.9414,1
278,서울특별시 관악구,AG003 1-3RZ 남현동 산 1-8,37.4744,126.971,1
279,서울특별시 관악구,AG003 2-3S 남현동 산 1-8,37.4746,126.971,1
280,서울특별시 관악구,AG003 3-3S 남현동 산 1-8,37.4742,126.971,1
281,서울특별시 관악구,AG004 1-1R 난곡동 711-49,37.4703,126.9187,1
282,서울특별시 관악구,AG005 1-1RZ 청룡동 산 151-139(장군봉근린공원),37.4791,126.938,1
283,서울특별시 관악구,AH001 1-1R 신림동 143-1(AA010,37.4684,126.9483,1
284,서울특별시 관악구,AH002 1-1RZ 신림동 143-1,37.468,126.9486,1
285,서울특별시 관악구,AH003 1-1RZ 봉천동 259-1,37.4712,126.9575,1
286,서울특별시 관악구,AH004 1-1RZ 봉천동 259-1,37.4711,126.9575,1
287,서울특별시 관악구,AH006 1-3RZ 신림동 산 133-4(관악산도시자연공원),37.4705,126.9256,1
288,서울특별시 관악구,AH006 2-3SZ 신림동 산 133-4(관악산도시자연공원),37.4707,126.9257,1
289,서울특별시 관악구,AH006 3-3SZ 신림동 산 133-4(관악산도시자연공원),37.4702,126.9257,1
290,서울특별시 관악구,AH007 1-1R 봉천동 1728-2 (까치소공원),37.4831,126.9603,1
291,서울특별시 관악구,AH008 1-3RZ 봉천동 227(낙성대공원),37.472,126.9595,1
292,서울특별시 관악구,AH008 2-3SZ 봉천동 227(낙성대공원),37.4719,126.9594,1
293,서울특별시 관악구,AH008 3-3SZ 봉천동 227(낙성대공원),37.472,126.9595,1
294,서울특별시 관악구,AH009 1-3R  신림동667-83,37.4622,126.9188,1
295,서울특별시 관악구,AH009 2-3S 신림동667-83,37.4623,126.9188,1
296,서울특별시 관악구,AH009 3-3S 신림동667-83,37.4622,126.9188,1
297,서울특별시 관악구,AH010 1-3R 봉천동255,37.4704,126.9569,1
298,서울특별시 관악구,AH010 2-3S 봉천동255,37.4706,126.9571,1
299,서울특별시 관악구,AH010 3-3S 봉천동255,37.4703,126.9568,1
300,서울특별시 관악구,AL001 1-2S 선우공원 산책로(미성동 산 117-3),37.4686,126.912,1
301,서울특별시 관악구,AL001 2-2S 선우공원 산책로(미성동 산 117-3),37.4687,126.9119,1
302,서울특별시 관악구,C1001 1-4R 신림동 1426-1 와 1417-43,37.4877,126.9301,1
303,서울특별시 관악구,C1001 2-4S 신림동 1426-1 와 1417-43,37.4877,126.9303,1
304,서울특별시 관악구,C1001 3-4S 신림동 1426-1 와 1417-43,37.4876,126.9302,1
305,서울특별시 관악구,C1001 4-4S 신림동 1426-1 와 1417-43,37.4878,126.9302,1
306,서울특별시 관악구,C1002 1-5RXC 청룡동 920와 918-13,37.4801,126.9439,1
307,서울특별시 관악구,C1002 2-5S 청룡동 920와 918-13 (관악초교),37.4801,126.9437,1
308,서울특별시 관악구,C1002 3-5S 청룡동 920와 918-13 (관악초교),37.4801,126.9441,1
309,서울특별시 관악구,C1002 4-5SC 청룡동 920와 918-13 (관악초교),37.48,126.9439,1
310,서울특별시 관악구,C1002 5-5S 청룡동 920와 918-13 (관악초교),37.4802,126.9439,1
311,서울특별시 관악구,C1003 1-5R 인헌동 1635-1와 1710-11 (은아유치원),37.4752,126.9641,1
312,서울특별시 관악구,C1003 2-5S 인헌동 1635-1와 1710-11 (은아유치원),37.4753,126.9642,1
313,서울특별시 관악구,C1003 3-5S 인헌동 1635-1와 1710-11 (은아유치원),37.4753,126.964,1
314,서울특별시 관악구,C1003 4-5S 인헌동 1635-1와 1710-11 (은아유치원),37.4751,126.9643,1
315,서울특별시 관악구,C1003 5-5SC 인헌동 1635-1와 1710-11 (은아유치원),37.475,126.9641,1
316,서울특별시 관악구,C2001 1-4RXC 중앙동 458-113,37.4861,126.9496,1
317,서울특별시 관악구,C2001 2-4U 중앙동 458-113,37.4861,126.9497,1
318,서울특별시 관악구,C2001 3-4U 중앙동 458-113,37.4862,126.9496,1
319,서울특별시 관악구,C2001 4-4U 중앙동 458-113,37.4861,126.9495,1
320,서울특별시 관악구,C2002 1-3RXC 난곡동 715-32,37.4703,126.9174,1
321,서울특별시 관악구,C2002 2-3U 난곡동 715-32,37.4703,126.9175,1
322,서울특별시 관악구,C2002 3-3U 난곡동 715-32,37.4702,126.9174,1
323,서울특별시 관악구,C2003 1-4RZ 남현동 1071-24(은탁빌라앞),37.4743,126.9727,1
324,서울특별시 관악구,C2003 2-4SZ 남현동 1071-24(은탁빌라앞),37.4742,126.9728,1
325,서울특별시 관악구,C2003 3-4SZ 남현동 1071-24(은탁빌라앞),37.4743,126.9728,1
326,서울특별시 관악구,C2003 4-4SZ 남현동 1071-24(은탁빌라앞),37.4743,126.9727,1
327,서울특별시 관악구,C2004 1-3RZ 난향동 1736-10,37.4622,126.9191,1
328,서울특별시 관악구,C2004 2-3UZ 난향동 1736-10,37.4621,126.9191,1
329,서울특별시 관악구,C2004 3-3UZ 난향동 1736-10,37.4623,126.9191,1
330,서울특별시 관악구,C2005 1-3RXXC 난향동 1735-9,37.4603,126.9201,1
331,서울특별시 관악구,C2005 2-3U 난향동 1735-9,37.4603,126.92,1
332,서울특별시 관악구,C2005 3-3U 난향동 1735-9,37.4603,126.9203,1
333,서울특별시 관악구,C2006 1-3RXC 은천동 622-1,37.4865,126.9434,1
334,서울특별시 관악구,C2006 2-3U 은천동 622-1,37.4864,126.9433,1
335,서울특별시 관악구,C2006 3-3U 은천동 622-1,37.4865,126.9435,1
336,서울특별시 관악구,C2007 1-3RZ 서림동 105-120(동작하이퍼마켓 맞은편),37.4745,126.9382,1
337,서울특별시 관악구,C2007 2-3UCZ 서림동 105-120(동작하이퍼마켓 맞은편),37.4745,126.9381,1
338,서울특별시 관악구,C2007 3-3UCZ 서림동 105-120(동작하이퍼마켓 맞은편),37.4745,126.9383,1
339,서울특별시 관악구,C2008 1-4RZ 남현동 1082-33,37.4743,126.9754,1
340,서울특별시 관악구,C2008 2-4SZ 남현동 1082-33,37.4743,126.9755,1
341,서울특별시 관악구,C2008 3-4SZ 남현동 1082-33,37.4744,126.9753,1
342,서울특별시 관악구,C2008 4-4SZ 남현동 1082-33,37.4742,126.9753,1
343,서울특별시 관악구,C2009 1-5RX 중앙동 889-4,37.4847,126.9473,1
344,서울특별시 관악구,C2009 2-5SZ 중앙동 889-4,37.4846,126.9475,1
345,서울특별시 관악구,C2009 3-5SZ 중앙동 889-4,37.4848,126.9473,1
346,서울특별시 관악구,C2009 4-5SZ 중앙동 889-4,37.4847,126.9472,1
347,서울특별시 관악구,C2009 5-5SZ 중앙동 889-4,37.4845,126.9473,1
348,서울특별시 관악구,C2010 1-4RX 서림동 119-11,37.4719,126.938,1
349,서울특별시 관악구,C2010 2-4S 서림동 119-11,37.4719,126.9377,1
350,서울특별시 관악구,C2010 3-4S 서림동 119-11,37.4719,126.9381,1
351,서울특별시 관악구,C2010 4-4S 서림동 119-11,37.4718,126.938,1
352,서울특별시 관악구,C2011 1-4RZ 서림동 117-1,37.4717,126.9363,1
353,서울특별시 관악구,C2011 2-4SZ 서림동 117-1,37.4716,126.9363,1
354,서울특별시 관악구,C2011 3-4SZ 서림동 117-1,37.4718,126.9364,1
355,서울특별시 관악구,C2011 4-4SZ 서림동 117-1,37.4717,126.9362,1
356,서울특별시 관악구,C2012 1-3R 난향동 673-46,37.4618,126.9162,1
357,서울특별시 관악구,C2012 2-3S 난향동 673-46,37.4618,126.9162,1
358,서울특별시 관악구,C2012 3-3S 난향동 673-46,37.4618,126.9161,1
359,서울특별시 관악구,C3001 1-5RZ 남현동 1081-1,37.475,126.9752,1
360,서울특별시 관악구,C3001 2-5UCZ 남현동 1081-1,37.4749,126.9752,1
361,서울특별시 관악구,C3001 3-5UCZ 남현동 1081-1,37.475,126.9752,1
362,서울특별시 관악구,C3001 4-5UCZ 남현동 1081-1,37.4751,126.9751,1
363,서울특별시 관악구,C3001 5-5UZ 남현동 1081-1,37.475,126.9751,1
364,서울특별시 관악구,C3002 1-1RZ 미성동 1478-31,37.4785,126.9132,1
365,서울특별시 관악구,C3003 1-5R 미성동 591-1,37.477,126.917,1
366,서울특별시 관악구,C3003 2-5S 미성동 589-1,37.477,126.9168,1
367,서울특별시 관악구,C3003 3-5S 미성동 589-1,37.4771,126.9169,1
368,서울특별시 관악구,C3003 4-5S 미성동 589-1,37.4771,126.9171,1
369,서울특별시 관악구,C3003 5-5U 미성동 591-1,37.4769,126.917,1
370,서울특별시 관악구,C3004 1-1RL 미성동 596-18,37.4771,126.9183,1
371,서울특별시 관악구,C3005 1-1R 미성동 733,37.4725,126.9122,1
372,서울특별시 관악구,C3006 1-1R 보라매동 711-4,37.4907,126.9289,1
373,서울특별시 관악구,C3007 1-2R 보라매동 728-72,37.4927,126.927,1
374,서울특별시 관악구,C3007 2-2UC 보라매동 728-72,37.4927,126.927,1
375,서울특별시 관악구,C3008 1-4R 보라매동 968-44,37.488,126.9318,1
376,서울특별시 관악구,C3008 2-4SC 보라매동 968-44,37.4881,126.9319,1
377,서울특별시 관악구,C3008 3-4S 보라매동 968-44,37.488,126.9317,1
378,서울특별시 관악구,C3008 4-4SC 보라매동 968-44,37.4879,126.932,1
379,서울특별시 관악구,C3009 1-4R 성현동 1703-3,37.4899,126.9535,1
380,서울특별시 관악구,C3009 2-4UC 성현동 1703-3,37.49,126.9537,1
381,서울특별시 관악구,C3009 3-4UC 성현동 1703-3,37.4898,126.9535,1
382,서울특별시 관악구,C3009 4-4UC 성현동 1703-3,37.49,126.9534,1
383,서울특별시 관악구,C3010 1-4RXC 성현동 492-26,37.4886,126.9463,1
384,서울특별시 관악구,C3010 2-4S 성현동 492-26,37.4884,126.9464,1
385,서울특별시 관악구,C3010 3-4S 성현동 492-26,37.4886,126.9465,1
386,서울특별시 관악구,C3010 4-4S 성현동 492-26,37.4887,126.9463,1
387,서울특별시 관악구,C3011 1-1RZ 신원동 1629-91,37.4781,126.9282,1
388,서울특별시 관악구,C3012 1-4RZ 청림동 8-11,37.4895,126.9586,1
389,서울특별시 관악구,C3012 2-4SZ 청림동 8-11,37.4894,126.9585,1
390,서울특별시 관악구,C3012 3-4SZ 청림동 8-11,37.4895,126.9586,1
391,서울특별시 관악구,C3012 4-4SZ 청림동 8-11,37.4895,126.9587,1
392,서울특별시 관악구,C3013 1-3R 행운동 148-63,37.4794,126.9635,1
393,서울특별시 관악구,C3013 2-3UC 행운동 148-63,37.4794,126.9635,1
394,서울특별시 관악구,C3013 3-3UC 행운동 148-63,37.4795,126.9636,1
395,서울특별시 관악구,C3014 1-1R 행운동 1667-55,37.4813,126.9553,1
396,서울특별시 관악구,C3015 1-1RX 행운동 1668-24,37.4818,126.9564,1
397,서울특별시 관악구,C3016 1-5RLZ 중앙동 459-58,37.4857,126.948,1
398,서울특별시 관악구,C3016 2-5SZ 중앙동 459-58,37.4857,126.9481,1
399,서울특별시 관악구,C3016 3-5SZ 중앙동 459-58,37.4857,126.9479,1
400,서울특별시 관악구,C3016 4-5SZ 중앙동 459-58,37.4857,126.9479,1
401,서울특별시 관악구,C3016 5-5SZ 중앙동 459-58,37.4858,126.948,1
402,서울특별시 관악구,C3017 1-1R 삼성동 315와 1724사이,37.4633,126.9317,1
403,서울특별시 관악구,C3018 1-3RZ 보라매동 712-3,37.4912,126.9298,1
404,서울특별시 관악구,C3018 2-3SCZ 보라매동 712-3,37.4911,126.9298,1
405,서울특별시 관악구,C3018 3-3SCZ 보라매동 712-3,37.4913,126.9299,1
406,서울특별시 관악구,CA001 1-6RXC 청림동 1717-2 (은비유치원),37.4892,126.9597,1
407,서울특별시 관악구,CA001 2-6S 청림동 1717-2 (은비유치원),37.4891,126.9598,1
408,서울특별시 관악구,CA001 3-6S 청림동 1717-2 (은비유치원),37.4893,126.9596,1
409,서울특별시 관악구,CA001 4-6S 청림동 1717-2 (은비유치원),37.4893,126.9598,1
410,서울특별시 관악구,CA001 5-6S 청림동 1717-2 (은비유치원),37.489,126.9595,1
411,서울특별시 관악구,CA001 6-6S 청림동 1717-2 (은비유치원),37.4889,126.9595,1
412,서울특별시 관악구,CA002 1-5RXC 중앙동 893-23,37.4826,126.9465,1
413,서울특별시 관악구,CA002 2-5U 중앙동 893-23,37.4825,126.9464,1
414,서울특별시 관악구,CA002 3-5U 중앙동 893-23,37.4826,126.9467,1
415,서울특별시 관악구,CA002 4-5U 중앙동 893-23,37.4827,126.9465,1
416,서울특별시 관악구,CA002 5-5U 중앙동 893-23,37.4827,126.9462,1
417,서울특별시 관악구,CA003 1-1RL 행운동 65-6 (동원유치원),37.4832,126.9564,1
418,서울특별시 관악구,CA004 1-4RXC 성현동 480-3 (새소슬유치원),37.4891,126.9486,1
419,서울특별시 관악구,CA004 2-4S 성현동 480-3 (새소슬유치원),37.4892,126.9485,1
420,서울특별시 관악구,CA004 4-4S 성현동 480-3 (새소슬유치원),37.489,126.9486,1
421,서울특별시 관악구,CA005 1-3RXC 성현동 산 101-75 (소슬유치원),37.4906,126.948,1
422,서울특별시 관악구,CA005 2-3S 성현동 산 101-75 (소슬유치원),37.4906,126.9479,1
423,서울특별시 관악구,CA005 3-3S 성현동 산 101-75 (소슬유치원),37.4905,126.948,1
424,서울특별시 관악구,CA006 1-4R 청림동 1-783 (현대유치원),37.492,126.9594,1
425,서울특별시 관악구,CA006 2-4S 청림동 1-783 (현대유치원),37.492,126.9593,1
426,서울특별시 관악구,CA006 3-4S 청림동 1-783 (현대유치원),37.4921,126.9595,1
427,서울특별시 관악구,CA006 4-4S 청림동 1-783 (현대유치원),37.492,126.9595,1
428,서울특별시 관악구,CA007 1-1RX 삼성동 1714-3 (구립합실어린이집),37.4638,126.9257,1
429,서울특별시 관악구,CA008 1-4RXC 삼성동 300-6 (구립미림어린이집),37.4663,126.9313,1
430,서울특별시 관악구,CA008 3-4U 삼성동 300-6 (구립미림어린이집),37.4664,126.9313,1
431,서울특별시 관악구,CA008 4-4U 삼성동 300-6 (구립미림어린이집),37.4661,126.9313,1
432,서울특별시 관악구,CA009 1-5RL 중앙동 888-12 (예대어린이집),37.4859,126.9475,1
433,서울특별시 관악구,CA009 2-5SC 중앙동 888-12 (예대어린이집),37.4859,126.9476,1
434,서울특별시 관악구,CA009 3-5SC 봉천동738-360  (예대어린이집),37.486,126.9475,1
435,서울특별시 관악구,CA009 4-5SC 중앙동 888-12 (예대어린이집),37.4859,126.9475,1
436,서울특별시 관악구,CA009 5-5SC 중앙동 888-12 (예대어린이집),37.486,126.9476,1
437,서울특별시 관악구,CA010 1-1R 난곡동 711-136 (난곡초등학교),37.4693,126.9181,1
438,서울특별시 관악구,"CB001 1-4RX 청룡동 1570-1, 청룡병설유치원",37.4778,126.9512,1
439,서울특별시 관악구,"CB001 2-4SC 청룡동 1570-1, 청룡병설유치원",37.4778,126.9513,1
440,서울특별시 관악구,"CB001 3-4S 청룡동 1570-1, 청룡병설유치원",37.4779,126.9512,1
441,서울특별시 관악구,"CB001 4-4SC 청룡동 1570-1, 청룡병설유치원",37.4778,126.9511,1
442,서울특별시 관악구,"CB002 1-5R 인헌동 196-38, 예일유치원(인헌초 후문)",37.474,126.9646,1
443,서울특별시 관악구,"CB002 2-5SC 인헌동 196-38, 예일유치원(인헌초 후문)",37.474,126.9645,1
444,서울특별시 관악구,"CB002 3-5SC 인헌동 196-38, 예일유치원(인헌초 후문)",37.4741,126.9645,1
445,서울특별시 관악구,"CB002 4-5SC 인헌동 196-38, 예일유치원(인헌초 후문)",37.474,126.9646,1
446,서울특별시 관악구,"CB002 5-5SC 인헌동 196-38, 예일유치원(인헌초 후문)",37.4741,126.9645,1
447,서울특별시 관악구,"CB003 1-4RZ 남현동 1071-15, 사당초등학교",37.4739,126.9732,1
448,서울특별시 관악구,"CB003 2-4SCZ{ 남현동 1071-15, 사당초등학교",37.4739,126.9731,1
449,서울특별시 관악구,"CB003 3-4SCZ 남현동 1071-15, 사당초등학교",37.4738,126.9733,1
450,서울특별시 관악구,"CB003 4-4SCZ 남현동 1071-15, 사당초등학교",37.4739,126.9733,1
451,서울특별시 관악구,"CB004 1-3R 남현동 1069-21, 사당초등학교",37.475,126.9741,1
452,서울특별시 관악구,"CB004 2-3SC 남현동 1069-21, 사당초등학교",37.4751,126.9741,1
453,서울특별시 관악구,"CB004 3-3SC 남현동 1069-21, 사당초등학교",37.475,126.9742,1
454,서울특별시 관악구,"CB005 1-4R 행운동 1669-1, 원당병설유치원",37.4805,126.9559,1
455,서울특별시 관악구,"CB005 2-4SC 행운동 1669-1, 원당병설유치원",37.4804,126.9559,1
456,서울특별시 관악구,"CB005 3-4SC 행운동 1669-1, 원당병설유치원",37.4805,126.956,1
457,서울특별시 관악구,"CB005 4-4SC 행운동 1669-1, 원당병설유치원",37.4806,126.9558,1
458,서울특별시 관악구,"CB006 1-3RZ 행운동 66-169, 봉천병설유치원",37.4826,126.9573,1
459,서울특별시 관악구,"CB006 2-3SZ 행운동 66-169, 봉천병설유치원",37.4826,126.9573,1
460,서울특별시 관악구,"CB006 3-3SZ 행운동 66-169, 봉천병설유치원",37.4826,126.9573,1
461,서울특별시 관악구,"CB007 1-3RZ 은천동 940-21, 은천병설유치원",37.4864,126.9398,1
462,서울특별시 관악구,"CB007 2-3SCZ 은천동 940-21, 은천병설유치원",37.4864,126.9399,1
463,서울특별시 관악구,"CB007 3-3SCZ 은천동 940-21, 은천병설유치원",37.4864,126.9397,1
464,서울특별시 관악구,"CB008 1-4R 청룡동 921-41, 관악병설유치원",37.4812,126.9441,1
465,서울특별시 관악구,"CB008 2-4SZ 청룡동 921-41, 관악병설유치원",37.4813,126.9441,1
466,서울특별시 관악구,"CB008 3-4SZ 청룡동 921-41, 관악병설유치원",37.4812,126.9441,1
467,서울특별시 관악구,"CB008 4-4SZ 청룡동 921-41, 관악병설유치원",37.4812,126.9441,1
468,서울특별시 관악구,CB009 1-5RLZ 청룡동 1525-34,37.4809,126.9406,1
469,서울특별시 관악구,CB009 2-5SZ 청룡동 1525-34,37.481,126.9405,1
470,서울특별시 관악구,CB009 3-5SCZ 청룡동 1525-34,37.481,126.9407,1
471,서울특별시 관악구,CB009 4-5SCZ 청룡동 1525-34,37.4808,126.9405,1
472,서울특별시 관악구,CB009 5-5SZ 청룡동 1525-34,37.4809,126.9407,1
473,서울특별시 관악구,"CB010 1-4R 신원동 412-358, 송이유치원",37.4755,126.9292,1
474,서울특별시 관악구,"CB010 2-4SC 신원동 412-358, 송이유치원",37.4755,126.9293,1
475,서울특별시 관악구,"CB010 3-4S 신원동 412-358, 송이유치원",37.4755,126.9292,1
476,서울특별시 관악구,"CB010 4-4SC 신원동 412-358, 송이유치원",37.4755,126.9292,1
477,서울특별시 관악구,"CB011 1-4R 대학동 244-152, 삼성병설유치원",37.4685,126.9396,1
478,서울특별시 관악구,"CB011 2-4SCZ 대학동 244-152, 삼성병설유치원",37.4684,126.9396,1
479,서울특별시 관악구,"CB011 3-4SCZ 대학동 244-152, 삼성병설유치원",37.4685,126.9396,1
480,서울특별시 관악구,"CB011 4-4SCZ 대학동 244-152, 삼성병설유치원",37.4685,126.9397,1
481,서울특별시 관악구,CB012 2-5SCZ 낙성대동 1624-20,37.4764,126.9579,1
482,서울특별시 관악구,CB012 4-5SCZ 낙성대동 1624-20,37.4764,126.9578,1
483,서울특별시 관악구,CB012 5-5SZ 낙성대동 1624-20,37.4765,126.9578,1
484,서울특별시 관악구,"CB013 1-5R 삼성동 산69-32, 신우단설유치원",37.462,126.9318,1
485,서울특별시 관악구,"CB013 2-5S 삼성동 산69-32, 신우단설유치원",37.462,126.9319,1
486,서울특별시 관악구,"CB013 3-5SC 삼성동 산69-32, 신우단설유치원",37.4618,126.9318,1
487,서울특별시 관악구,"CB013 4-5SC 삼성동 산69-32, 신우단설유치원",37.4621,126.9318,1
488,서울특별시 관악구,"CB013 5-5SC 삼성동 산69-32, 신우단설유치원",37.4621,126.9317,1
489,서울특별시 관악구,"CB014 1-3RX 삼성동 1704-4, 명성유치원",37.4649,126.9268,1
490,서울특별시 관악구,"CB014 2-3SC 삼성동 1704-4, 명성유치원",37.4649,126.9268,1
491,서울특별시 관악구,"CB014 3-3SC 삼성동 1704-4, 명성유치원",37.4648,126.9267,1
492,서울특별시 관악구,"CB015 1-3R 난곡동 621-5, 신림유치원",37.472,126.92,1
493,서울특별시 관악구,"CB015 2-3S 난곡동 621-5, 신림유치원",37.472,126.92,1
494,서울특별시 관악구,"CB015 3-3SC 난곡동 621-5, 신림유치원",37.4719,126.92,1
495,서울특별시 관악구,"CB016 1-3RZ 난곡동 711-11, 난곡병설유치원",37.4701,126.9185,1
496,서울특별시 관악구,"CB016 2-3SZ 난곡동 711-11, 난곡병설유치원",37.4701,126.9185,1
497,서울특별시 관악구,"CB016 3-3SZ 난곡동 711-11, 난곡병설유치원",37.47,126.9184,1
498,서울특별시 관악구,"CB017 1-4R 난곡동 613-25, 미라클어린이집",37.4737,126.9196,1
499,서울특별시 관악구,"CB017 2-4SC 난곡동 613-25, 미라클어린이집",37.4737,126.9196,1
500,서울특별시 관악구,"CB017 3-4SC 난곡동 613-25, 미라클어린이집",37.4738,126.9195,1
501,서울특별시 관악구,"CB017 4-4SC 난곡동 613-25, 미라클어린이집",37.4737,126.9196,1
502,서울특별시 관악구,"CB018 1-4RZ 미성동 602-12, 난우초등학교",37.4759,126.9182,1
503,서울특별시 관악구,"CB018 2-4SCZ 미성동 602-12, 난우초등학교",37.4759,126.9182,1
504,서울특별시 관악구,"CB018 3-4SCZ 미성동 602-12, 난우초등학교",37.4758,126.9181,1
505,서울특별시 관악구,"CB018 4-4SZ 미성동 602-12, 난우초등학교",37.4758,126.9182,1
506,서울특별시 관악구,"CB019 1-1RZ 삼성동 336, 원신초등학교",37.467,126.9267,1
507,서울특별시 관악구,"CB020 1-3RZ 보라매동 711-98, 사랑어린이집",37.4916,126.9301,1
508,서울특별시 관악구,"CB020 2-3SZ 보라매동 711-98, 사랑어린이집",37.4915,126.9302,1
509,서울특별시 관악구,"CB020 3-3SCZ 보라매동 711-98, 사랑어린이집",37.4916,126.9301,1
510,서울특별시 관악구,CD001 1-4RZ 중앙동 457-247,37.4855,126.9497,1
511,서울특별시 관악구,CD001 2-4SZ 중앙동 457-247,37.4856,126.9497,1
512,서울특별시 관악구,CD001 3-4SZ 중앙동 457-247,37.4855,126.9498,1
513,서울특별시 관악구,CD001 4-4SZ 중앙동 457-247,37.4855,126.9496,1
514,서울특별시 관악구,CD002 1-4R 청림동 1-85,37.4898,126.9585,1
515,서울특별시 관악구,CD002 2-4S 청림동 1-85,37.4897,126.9585,1
516,서울특별시 관악구,CD002 3-4S 청림동 1-85,37.4898,126.9584,1
517,서울특별시 관악구,CD002 4-4S 청림동 1-85,37.4899,126.9585,1
518,서울특별시 관악구,CD003 1-5R 신림동 524-1,37.4844,126.9146,1
519,서울특별시 관악구,CD003 2-5S 신림동 524-1,37.4845,126.9146,1
520,서울특별시 관악구,CD003 3-5S 신림동 524-1,37.4843,126.9146,1
521,서울특별시 관악구,CD003 4-5S 신림동 524-1,37.4844,126.9147,1
522,서울특별시 관악구,CD003 5-5S 신림동 524-1,37.4845,126.9147,1
523,서울특별시 관악구,CE001 1-4R 중앙동 1512-8,37.4838,126.9498,1
524,서울특별시 관악구,CE001 2-4S 중앙동 1512-8,37.4839,126.9497,1
525,서울특별시 관악구,CE001 3-4S 중앙동 1512-8,37.4838,126.9499,1
526,서울특별시 관악구,CE001 4-4S 중앙동 1512-8,37.4839,126.9498,1
527,서울특별시 관악구,CE002 1-4R 청림동 1-62,37.4902,126.9579,1
528,서울특별시 관악구,CE002 2-4S 청림동 1-62,37.4902,126.9579,1
529,서울특별시 관악구,CE002 3-4S 청림동 1-62,37.4902,126.9579,1
530,서울특별시 관악구,CE002 4-4S 청림동 1-62,37.4903,126.9578,1
531,서울특별시 관악구,CE003 1-4R 청룡동 1591-2,37.4756,126.9519,1
532,서울특별시 관악구,CE003 2-4S 청룡동 1591-2,37.4756,126.9518,1
533,서울특별시 관악구,CE003 3-4S 청룡동 1591-2,37.4755,126.9518,1
534,서울특별시 관악구,CE003 4-4S 청룡동 1591-2,37.4756,126.9519,1
535,서울특별시 관악구,CE004 1-4R 낙성대동 산 58-1,37.4749,126.959,1
536,서울특별시 관악구,CE004 2-4S 낙성대동 산 58-1,37.475,126.959,1
537,서울특별시 관악구,CE004 3-4S 낙성대동 산 58-1,37.4748,126.959,1
538,서울특별시 관악구,CE004 4-4S 낙성대동 산 58-1,37.4749,126.9588,1
539,서울특별시 관악구,CE005 1-4RZ 남현동 1071-37,37.475,126.9735,1
540,서울특별시 관악구,CE005 2-4SZ 남현동 1071-37,37.4751,126.9736,1
541,서울특별시 관악구,CE005 3-4SZ 남현동 1071-37,37.4749,126.9735,1
542,서울특별시 관악구,CE005 4-4SZ 남현동 1071-37,37.4749,126.9734,1
543,서울특별시 관악구,CE006 1-5RZ 신사동 487-22,37.4836,126.9206,1
544,서울특별시 관악구,CE006 2-5SZ 신사동 487-22,37.4837,126.9206,1
545,서울특별시 관악구,CE006 3-5SZ 신사동 487-22,37.4836,126.9207,1
546,서울특별시 관악구,CE006 4-5SZ 신사동 487-22,37.4836,126.9204,1
547,서울특별시 관악구,CE006 5-5SZ 신사동 487-22,37.4837,126.9205,1
548,서울특별시 관악구,CE007 1-5RZ 조원동 1655-22,37.4823,126.902,1
549,서울특별시 관악구,CE007 2-5SZ 조원동 1655-22,37.4824,126.9021,1
550,서울특별시 관악구,CE007 3-5SZ 조원동 1655-22,37.4822,126.9021,1
551,서울특별시 관악구,CE007 4-5SZ 조원동 1655-22,37.4822,126.902,1
552,서울특별시 관악구,CE007 5-5SZ 조원동 1655-22,37.4823,126.9019,1
553,서울특별시 관악구,CE008 1-4R 조원동 538-15,37.4815,126.9124,1
554,서울특별시 관악구,CE008 2-4S 조원동 538-15,37.4816,126.9127,1
555,서울특별시 관악구,CE008 3-4S 조원동 538-15,37.4817,126.9123,1
556,서울특별시 관악구,CE008 4-4S 조원동 538-15,37.4814,126.9121,1
557,서울특별시 관악구,CE009 1-3RZ 미성동 597-25,37.4761,126.9188,1
558,서울특별시 관악구,CE009 2-3SZ 미성동 597-25,37.4761,126.9189,1
559,서울특별시 관악구,CE009 3-3SZ 미성동 597-25,37.4761,126.9187,1
560,서울특별시 관악구,CE010 1-3R 미성동 733,37.4719,126.9121,1
561,서울특별시 관악구,CE010 2-3S 미성동 733,37.4718,126.9121,1
562,서울특별시 관악구,CE010 3-3S 미성동 733,37.472,126.9121,1
563,서울특별시 관악구,CE011 1-4RZ 신원동 1581-6,37.4827,126.9246,1
564,서울특별시 관악구,CE011 2-4SZ 신원동 1581-6,37.4828,126.9246,1
565,서울특별시 관악구,CE011 3-4SZ 신원동 1581-6,37.4826,126.9246,1
566,서울특별시 관악구,CE011 4-4SZ 신원동 1581-6,37.4827,126.9245,1
567,서울특별시 관악구,CE012 1-4R 난곡동 635-22,37.4709,126.9199,1
568,서울특별시 관악구,CE012 2-4S 난곡동 635-22,37.4709,126.92,1
569,서울특별시 관악구,CE012 3-4S 난곡동 635-22,37.4708,126.9199,1
570,서울특별시 관악구,CE012 4-4S 난곡동 635-22,37.471,126.9199,1
571,서울특별시 관악구,CE013 1-4R 난곡동 700-57,37.47,126.92,1
572,서울특별시 관악구,CE013 2-4S 난곡동 700-57,37.4698,126.92,1
573,서울특별시 관악구,CE013 3-4S 난곡동 700-57,37.4701,126.92,1
574,서울특별시 관악구,CE013 4-4S 난곡동 700-57,37.47,126.9201,1
575,서울특별시 관악구,CE014 1-5RZ 난곡동 711-26,37.4706,126.9191,1
576,서울특별시 관악구,CE014 2-5SZ 난곡동 711-26,37.4705,126.9192,1
577,서울특별시 관악구,CE014 3-5SZ 난곡동 711-26,37.4705,126.919,1
578,서울특별시 관악구,CE014 4-5SZ 난곡동 711-26,37.4706,126.919,1
579,서울특별시 관악구,CE014 5-5SZ 난곡동 711-26,37.4707,126.919,1
580,서울특별시 관악구,CE015 1-4RZ 신원동 1627-17,37.4792,126.927,1
581,서울특별시 관악구,CE015 3-4SZ 신원동 1627-17,37.4793,126.927,1
582,서울특별시 관악구,CE015 4-4SZ 신원동 1627-17,37.4793,126.9271,1
583,서울특별시 관악구,CE016 1-4R 신원동 1629-6,37.4787,126.9273,1
584,서울특별시 관악구,CE016 2-4S 신원동 1629-6,37.4786,126.9273,1
585,서울특별시 관악구,CE016 3-4S 신원동 1629-6,37.4787,126.9274,1
586,서울특별시 관악구,CE016 4-4S 신원동 1629-6,37.4788,126.9273,1
587,서울특별시 관악구,CE017 1-5R 대학동 244-104,37.4685,126.94,1
588,서울특별시 관악구,CE017 2-5S 대학동 244-104,37.4685,126.94,1
589,서울특별시 관악구,CE017 3-5S 대학동 244-104,37.4686,126.94,1
590,서울특별시 관악구,CE017 4-5S 대학동 244-104,37.4685,126.9401,1
591,서울특별시 관악구,CE017 5-5S 대학동 244-104,37.4685,126.9401,1
592,서울특별시 관악구,CE018 1-5RZ 중앙동 886-7,37.4841,126.9481,1
593,서울특별시 관악구,CE018 2-5SZ 중앙동 886-7,37.484,126.9481,1
594,서울특별시 관악구,CE018 3-5SZ 중앙동 886-7,37.4841,126.948,1
595,서울특별시 관악구,CE018 4-5SZ 중앙동 886-7,37.4841,126.948,1
596,서울특별시 관악구,CE018 5-5SZ 중앙동 886-7,37.4841,126.9481,1
597,서울특별시 관악구,CE019 1-3R 삼성동 300-8,37.4663,126.9307,1
598,서울특별시 관악구,CE019 2-3S 삼성동 300-8,37.4663,126.9306,1
599,서울특별시 관악구,CE019 3-3S 삼성동 300-8,37.4663,126.9308,1
600,서울특별시 관악구,CE020 1-4RZ 서림동 120-59,37.4721,126.9367,1
601,서울특별시 관악구,CE020 2-4SZ 서림동 120-59,37.4721,126.9367,1
602,서울특별시 관악구,CE020 3-4SZ 서림동 120-59,37.4721,126.9368,1
603,서울특별시 관악구,CE020 4-4SZ 서림동 120-59,37.4721,126.9368,1
604,서울특별시 관악구,CE021 1-5R 서림동 99-29,37.4746,126.9392,1
605,서울특별시 관악구,CE021 2-5S 서림동 99-29,37.4745,126.939,1
606,서울특별시 관악구,CE021 3-5S 서림동 99-29,37.4746,126.939,1
607,서울특별시 관악구,CE021 4-5S 서림동 99-29,37.4747,126.9392,1
608,서울특별시 관악구,CE021 5-5S 서림동 99-29,37.4746,126.9393,1
609,서울특별시 관악구,CE022 1-4R 서림동 98-108,37.4747,126.9402,1
610,서울특별시 관악구,CE022 2-4S 서림동 98-108,37.4747,126.9401,1
611,서울특별시 관악구,CE022 3-4S 서림동 98-108,37.4748,126.9402,1
612,서울특별시 관악구,CE022 4-4S 서림동 98-108,37.4748,126.9404,1
613,서울특별시 관악구,CE023 1-4RXX 미성동 763-68,37.4764,126.9157,1
614,서울특별시 관악구,CE023 2-4S 미성동 763-68,37.4764,126.9156,1
615,서울특별시 관악구,CE023 3-4S 미성동 763-68,37.4765,126.9157,1
616,서울특별시 관악구,CE023 4-4S 미성동 763-68,37.4763,126.9157,1
617,서울특별시 관악구,CE024 1-4R 미성동 1478-31,37.4786,126.9141,1
618,서울특별시 관악구,CE024 2-5S 미성동 1478-31,37.4786,126.9141,1
619,서울특별시 관악구,CE024 3-5S 미성동 1478-31,37.4786,126.9141,1
620,서울특별시 관악구,CE024 4-5S 미성동 1478-31,37.4786,126.9142,1
621,서울특별시 관악구,CE024 5-5S 미성동 1478-31,37.4784,126.9143,1
622,서울특별시 관악구,CF001 1-5RXX 신원동 1627-11,37.4791,126.9265,1
623,서울특별시 관악구,CF001 2-5S 신원동 1627-11,37.4791,126.9267,1
624,서울특별시 관악구,CF001 3-5S 신원동 1627-11,37.4791,126.9263,1
625,서울특별시 관악구,CF001 4-5S 신원동 1627-11,37.479,126.9265,1
626,서울특별시 관악구,CF001 5-5S 신원동 1627-11,37.4792,126.9265,1
627,서울특별시 관악구,D2001 1-4R 낙성대동 1604-25,37.4784,126.9544,1
628,서울특별시 관악구,D2001 2-4S 낙성대동 1604-25,37.4784,126.9544,1
629,서울특별시 관악구,D2001 3-4S 낙성대동 1604-25,37.4784,126.9543,1
630,서울특별시 관악구,D2001 4-4S 낙성대동 1604-25,37.4785,126.9544,1
631,서울특별시 관악구,D2002 1-1R 낙성대동 1617-5,37.4764,126.9561,1
632,서울특별시 관악구,D2002 2-5S 낙성대동 1617-5,37.4762,126.9561,1
633,서울특별시 관악구,D2002 3-5S 낙성대동 1617-5,37.4764,126.956,1
634,서울특별시 관악구,D2002 4-5S 낙성대동 1617-5,37.4765,126.9562,1
635,서울특별시 관악구,D2002 5-5S 낙성대동 1617-5,37.4764,126.9563,1
636,서울특별시 관악구,D2003 1-1RZ 낙성대동 1627-13,37.4773,126.9591,1
637,서울특별시 관악구,D2004 1-5RZ 낙성대동 738-10,37.4741,126.9605,1
638,서울특별시 관악구,D2004 2-5SZ 낙성대동 738-10,37.4741,126.9605,1
639,서울특별시 관악구,D2004 3-5SZ 낙성대동 738-10,37.474,126.9605,1
640,서울특별시 관악구,D2004 4-5SZ 낙성대동 738-10,37.4742,126.9605,1
641,서울특별시 관악구,D2004 5-5SZ 낙성대동 738-10,37.4741,126.9604,1
642,서울특별시 관악구,D2005 1-5R 난곡동 610-140,37.4749,126.9228,1
643,서울특별시 관악구,D2005 2-5SZ 난곡동 610-140,37.475,126.9229,1
644,서울특별시 관악구,D2005 3-5SZ 난곡동 610-140,37.4748,126.9229,1
645,서울특별시 관악구,D2005 4-5SZ 난곡동 610-140,37.4749,126.9227,1
646,서울특별시 관악구,D2005 5-5SZ 난곡동 610-140,37.475,126.9227,1
647,서울특별시 관악구,D2006 1-3R 난곡동 610-148,37.4757,126.9242,1
648,서울특별시 관악구,D2006 2-3UCZ 난곡동 610-148,37.4756,126.924,1
649,서울특별시 관악구,D2006 3-3UCZ난곡동 610-148,37.4758,126.9241,1
650,서울특별시 관악구,D2007 1-1R 난곡동 610-447,37.4736,126.924,1
651,서울특별시 관악구,D2008 1-4R 난곡동 629-47,37.4721,126.9224,1
652,서울특별시 관악구,D2008 2-4S 난곡동 629-47,37.4721,126.9224,1
653,서울특별시 관악구,D2008 3-4S 난곡동 629-47,37.472,126.9224,1
654,서울특별시 관악구,D2008 4-4S 난곡동 629-47,37.4721,126.9225,1
655,서울특별시 관악구,D2009 1-2RL 난곡동 646-203,37.4687,126.9235,1
656,서울특별시 관악구,D2009 2-2S 난곡동646-203,37.4685,126.9237,1
657,서울특별시 관악구,D2009 3-4S 난곡동 646-203,37.4687,126.9234,1
658,서울특별시 관악구,D2009 4-4S 난곡동 646-203,37.4687,126.9234,1
659,서울특별시 관악구,D2010 1-5RZ 난곡동 652-53,37.4675,126.9228,1
660,서울특별시 관악구,D2010 2-5SZ 난곡동 652-53,37.4676,126.9229,1
661,서울특별시 관악구,D2010 3-5SZ 난곡동 652-53,37.4675,126.9229,1
662,서울특별시 관악구,D2010 4-5SZ 난곡동 652-53,37.4674,126.9228,1
663,서울특별시 관악구,D2010 5-5SZ 난곡동 652-53,37.4676,126.9227,1
664,서울특별시 관악구,D2011 1-4RZ 난곡동 706-26,37.4728,126.9182,1
665,서울특별시 관악구,D2011 2-4SZ 난곡동 706-26,37.4728,126.9183,1
666,서울특별시 관악구,D2011 3-4SZ 난곡동 706-26,37.4727,126.9182,1
667,서울특별시 관악구,D2011 4-4SZ 난곡동 706-26,37.4728,126.9181,1
668,서울특별시 관악구,D2012 1-5R 난향동 675-98,37.4628,126.9156,1
669,서울특별시 관악구,D2012 2-5S 난향동 675-98,37.4629,126.9157,1
670,서울특별시 관악구,D2012 3-5S 난향동 675-98,37.4627,126.9157,1
671,서울특별시 관악구,D2012 4-5S 난향동 675-98,37.4627,126.9155,1
672,서울특별시 관악구,D2012 5-5S 난향동 675-98,37.4629,126.9154,1
673,서울특별시 관악구,D2013 1-5R 난향동 676-15,37.4632,126.9185,1
674,서울특별시 관악구,D2013 2-5S 난향동 676-15,37.463,126.9185,1
675,서울특별시 관악구,D2013 3-5S 난향동 676-15,37.4631,126.9184,1
676,서울특별시 관악구,D2013 4-5S 난향동 676-15,37.4633,126.9184,1
677,서울특별시 관악구,D2013 5-5S 난향동 676-15,37.4632,126.9186,1
678,서울특별시 관악구,D2014 1-1R 난향동 685-125,37.4637,126.9178,1
679,서울특별시 관악구,D2015 1-5R 남현동 1053-29,37.4722,126.9721,1
680,서울특별시 관악구,D2015 2-5S 남현동 1053-29,37.4723,126.9719,1
681,서울특별시 관악구,D2015 3-5S 남현동 1053-29,37.4724,126.9722,1
682,서울특별시 관악구,D2015 4-5S 남현동 1053-29,37.4721,126.9723,1
683,서울특별시 관악구,D2015 5-5S 남현동 1053-29,37.472,126.972,1
684,서울특별시 관악구,D2016 1-4R 남현동 1071-21,37.4745,126.9724,1
685,서울특별시 관악구,D2016 2-4S 남현동 1071-21,37.4746,126.9722,1
686,서울특별시 관악구,D2016 3-4S 남현동 1071-21,37.4747,126.9725,1
687,서울특별시 관악구,D2016 4-4S 남현동 1071-21,37.4744,126.9723,1
688,서울특별시 관악구,D2017 1-5RZ 남현동 1072-96,37.4717,126.9729,1
689,서울특별시 관악구,D2017 2-5SZ 남현동 1072-96,37.4717,126.973,1
690,서울특별시 관악구,D2017 3-5SZ 남현동 1072-96,37.4717,126.9728,1
691,서울특별시 관악구,D2017 4-5SZ 남현동 1072-96,37.4716,126.973,1
692,서울특별시 관악구,D2017 5-5SZ 남현동 1072-96,37.4716,126.9729,1
693,서울특별시 관악구,D2018 1-4R 남현동 1076-21,37.4725,126.9748,1
694,서울특별시 관악구,D2018 2-4S 남현동 1076-21,37.4726,126.9749,1
695,서울특별시 관악구,D2018 3-4S 남현동 1076-21,37.4724,126.9747,1
696,서울특별시 관악구,D2018 4-4S 남현동 1076-21,37.4726,126.9746,1
697,서울특별시 관악구,D2019 1-5RZ 남현동 1079-1,37.4731,126.974,1
698,서울특별시 관악구,D2019 2-5SZ 남현동 1079-1,37.4732,126.9739,1
699,서울특별시 관악구,D2019 3-5SZ 남현동 1079-1,37.4731,126.9739,1
700,서울특별시 관악구,D2019 4-5SZ 남현동 1079-1,37.4731,126.974,1
701,서울특별시 관악구,D2019 5-5SZ 남현동 1079-1,37.4732,126.9741,1
702,서울특별시 관악구,D2020 1-5R 대학동 1532-16,37.469,126.9332,1
703,서울특별시 관악구,D2020 2-5S 대학동 1532-16,37.4689,126.9332,1
704,서울특별시 관악구,D2020 3-5S 대학동 1532-16,37.4691,126.9331,1
705,서울특별시 관악구,D2020 4-5S 대학동 1532-16,37.4691,126.9333,1
706,서울특별시 관악구,D2020 5-5S 대학동 1532-16,37.469,126.9334,1
707,서울특별시 관악구,D2021 1-5R 대학동 1536-17,37.4691,126.9364,1
708,서울특별시 관악구,D2021 2-5S 대학동 1536-17,37.4692,126.9365,1
709,서울특별시 관악구,D2021 3-5S 대학동 1536-17,37.469,126.9366,1
710,서울특별시 관악구,D2021 4-5S 대학동 1536-17,37.4689,126.9364,1
711,서울특별시 관악구,D2021 5-5S 대학동 1536-17,37.4691,126.9363,1
712,서울특별시 관악구,D2022 1-3R 대학동 225,37.47,126.9415,1
713,서울특별시 관악구,D2022 2-3UC 대학동 225,37.4699,126.9415,1
714,서울특별시 관악구,D2022 3-3UC 대학동 225,37.4701,126.9415,1
715,서울특별시 관악구,D2023 1-4RZ 대학동 231-18,37.4689,126.9421,1
716,서울특별시 관악구,D2023 2-4SZ 대학동 231-18,37.469,126.9421,1
717,서울특별시 관악구,D2023 3-4SZ 대학동 231-18,37.4687,126.9421,1
718,서울특별시 관악구,D2023 4-4SZ 대학동 231-18,37.4689,126.9419,1
719,서울특별시 관악구,D2024 1-4R 대학동 818-68,37.4675,126.9376,1
720,서울특별시 관악구,D2024 2-4S 대학동 818-68,37.4676,126.9376,1
721,서울특별시 관악구,D2024 3-4S 대학동 818-68,37.4675,126.9376,1
722,서울특별시 관악구,D2024 4-4S 대학동 818-68,37.4675,126.9376,1
723,서울특별시 관악구,D2025 1-4RZ 미성동 1565-6,37.4784,126.9162,1
724,서울특별시 관악구,D2025 2-4SZ 미성동 1565-6,37.4785,126.9162,1
725,서울특별시 관악구,D2025 3-4SZ 미성동 1565-6,37.4784,126.9161,1
726,서울특별시 관악구,D2025 4-4SZ 미성동 1565-6,37.4783,126.9163,1
727,서울특별시 관악구,D2026 1-2R 미성동 598-72,37.4764,126.9219,1
728,서울특별시 관악구,D2026 2-2UC 미성동 598-72,37.4764,126.9218,1
729,서울특별시 관악구,D2027 1-5RXC 미성동 724-49,37.4738,126.9169,1
730,서울특별시 관악구,D2027 2-5U 미성동 724-49,37.4737,126.917,1
731,서울특별시 관악구,D2027 3-5U 미성동 724-49,37.4739,126.9168,1
732,서울특별시 관악구,D2027 4-5U 미성동 724-49,37.4737,126.9168,1
733,서울특별시 관악구,D2027 5-5U 미성동 724-49,37.4738,126.9168,1
734,서울특별시 관악구,D2028 1-3RZ 미성동 745-23,37.4749,126.9132,1
735,서울특별시 관악구,D2028 2-3SZ 미성동 745-23,37.4748,126.9132,1
736,서울특별시 관악구,D2028 3-3SZ 미성동 745-23,37.4749,126.9131,1
737,서울특별시 관악구,D2029 1-5R 미성동 산117-10,37.4743,126.9137,1
738,서울특별시 관악구,D2029 2-5S 미성동 산117-10,37.4741,126.9135,1
739,서울특별시 관악구,D2029 3-5S 미성동 산117-10,37.4743,126.9135,1
740,서울특별시 관악구,D2029 4-5S 미성동 산117-10,37.4744,126.9138,1
741,서울특별시 관악구,D2029 5-5S 미성동 산117-10,37.4741,126.9137,1
742,서울특별시 관악구,D2030 1-4RL 보라매동 671-2,37.4899,126.9307,1
743,서울특별시 관악구,D2030 2-4SZ 보라매동 671-2,37.4899,126.9308,1
744,서울특별시 관악구,D2030 3-4SZ 보라매동 671-2,37.49,126.9306,1
745,서울특별시 관악구,D2030 4-4SZ 보라매동 671-2,37.4898,126.9306,1
746,서울특별시 관악구,D2031 1-1R 보라매동 702-100,37.4913,126.9265,1
747,서울특별시 관악구,D2032 1-4RZ 보라매동 706-22,37.4909,126.9281,1
748,서울특별시 관악구,D2032 2-4SZ 보라매동 706-22,37.491,126.9282,1
749,서울특별시 관악구,D2032 3-4SZ 보라매동 706-22,37.4908,126.9282,1
750,서울특별시 관악구,D2032 4-4SZ 보라매동 706-22,37.4909,126.928,1
751,서울특별시 관악구,D2033 1-1R 보라매동 715-3,37.4931,126.9314,1
752,서울특별시 관악구,D2034 1-4RL 보라매동 716-11,37.4921,126.9295,1
753,서울특별시 관악구,D2034 2-4S 보라매동 716-11,37.4921,126.9297,1
754,서울특별시 관악구,D2034 3-4S 보라매동 716-11,37.492,126.9297,1
755,서울특별시 관악구,D2034 4-4S 보라매동 716-11,37.4921,126.9294,1
756,서울특별시 관악구,D2035 1-2R 보라매동 736-1,37.4906,126.9263,1
757,서울특별시 관악구,D2035 2-2SC 보라매동 736-1,37.4907,126.9261,1
758,서울특별시 관악구,D2036 1-5R 삼성동 306-49,37.4643,126.9329,1
759,서울특별시 관악구,D2036 2-5S 삼성동 306-49,37.4642,126.9329,1
760,서울특별시 관악구,D2036 3-5S 삼성동 306-49,37.4643,126.9327,1
761,서울특별시 관악구,D2036 4-5S 삼성동 306-49,37.4644,126.9328,1
762,서울특별시 관악구,D2036 5-5S 삼성동 306-49,37.4643,126.933,1
763,서울특별시 관악구,D2037 1-1R 삼성동 306-80,37.4656,126.9332,1
764,서울특별시 관악구,D2038 1-4RXXC 삼성동 307-5,37.4647,126.9315,1
765,서울특별시 관악구,D2038 2-4UC 삼성동 307-5,37.4646,126.9315,1
766,서울특별시 관악구,D2038 3-4UC 삼성동 307-5,37.4647,126.9314,1
767,서울특별시 관악구,D2038 4-4UC 삼성동 307-5,37.4648,126.9315,1
768,서울특별시 관악구,D2039 1-4R 봉천동636-1,37.4872,126.9395,1
769,서울특별시 관악구,D2039 2-4S 봉천동636-1,37.4872,126.9393,1
770,서울특별시 관악구,D2039 3-4S 봉천동636-1,37.4874,126.9395,1
771,서울특별시 관악구,D2039 4-4S 봉천동636-1,37.4872,126.9395,1
772,서울특별시 관악구,D2040 1-2RL 삼성동 378-5,37.4715,126.9313,1
773,서울특별시 관악구,D2040 2-2UC 삼성동 378-5,37.4714,126.9312,1
774,서울특별시 관악구,D2041 1-5R 서림동 1564-6,37.4763,126.9397,1
775,서울특별시 관악구,D2041 2-5S 서림동 1564-6,37.4763,126.9398,1
776,서울특별시 관악구,D2041 3-5S 서림동 1564-6,37.4762,126.9397,1
777,서울특별시 관악구,D2041 4-5S 서림동 1564-6,37.4762,126.9396,1
778,서울특별시 관악구,D2041 5-5S 서림동 1564-6,37.4764,126.9397,1
779,서울특별시 관악구,D2042 1-1R 서림동 408-10,37.4769,126.9355,1
780,서울특별시 관악구,D2043 1-6R 서림동 94-10,37.476,126.9388,1
781,서울특별시 관악구,D2043 2-6S 서림동 94-10,37.4759,126.9387,1
782,서울특별시 관악구,D2043 3-6S 서림동 94-10,37.476,126.9386,1
783,서울특별시 관악구,D2043 4-6S 서림동 94-10,37.4761,126.9388,1
784,서울특별시 관악구,D2043 5-6S 서림동 94-10,37.476,126.9389,1
785,서울특별시 관악구,D2043 6-6S 서림동 94-10,37.476,126.9391,1
786,서울특별시 관악구,D2044 1-5R 서림동 94-147,37.4766,126.9378,1
787,서울특별시 관악구,D2044 2-5S 서림동 94-147,37.4765,126.9378,1
788,서울특별시 관악구,D2044 3-5S 서림동 94-147,37.4766,126.9377,1
789,서울특별시 관악구,D2044 4-5S 서림동 94-147,37.4767,126.9378,1
790,서울특별시 관악구,D2044 5-5S 서림동 94-147,37.4766,126.9379,1
791,서울특별시 관악구,D2045 1-5R 서림동 98-57,37.4746,126.9419,1
792,서울특별시 관악구,D2045 2-5S 서림동 98-57,37.4746,126.9418,1
793,서울특별시 관악구,D2045 3-5S 서림동 98-57,37.4747,126.9418,1
794,서울특별시 관악구,D2045 4-5S 서림동 98-57,37.4747,126.9419,1
795,서울특별시 관악구,D2045 5-5S 서림동 98-57,37.4746,126.942,1
796,서울특별시 관악구,D2046 1-3R 서원동 409-16,37.4775,126.9328,1
797,서울특별시 관악구,D2046 2-3UC 서원동 409-16,37.4774,126.9328,1
798,서울특별시 관악구,D2046 3-3UC 서원동 409-16,37.4776,126.9328,1
799,서울특별시 관악구,D2047 1-1R 서원동 409-330,37.4763,126.9346,1
800,서울특별시 관악구,D2048 1-4RZ 서원동 412-21,37.4774,126.9312,1
801,서울특별시 관악구,D2048 2-4SZ 서원동 412-21,37.4774,126.9311,1
802,서울특별시 관악구,D2048 3-4SZ 서원동 412-21,37.4774,126.9313,1
803,서울특별시 관악구,D2048 4-4SZ 서원동 412-21,37.4773,126.9312,1
804,서울특별시 관악구,D2049 1-3RL 서원동 92-362,37.4791,126.9324,1
805,서울특별시 관악구,D2049 2-3UC 서원동 92-362,37.479,126.9323,1
806,서울특별시 관악구,D2049 3-3UC 서원동 92-362,37.4792,126.9325,1
807,서울특별시 관악구,D2050 1-4R 성현동 1712-1,37.4922,126.9468,1
808,서울특별시 관악구,D2050 2-4UC 성현동 1712-1,37.4921,126.9469,1
809,서울특별시 관악구,D2050 3-4UC 성현동 1712-1,37.4922,126.9466,1
810,서울특별시 관악구,D2050 4-4S 성현동 1712-1,37.4923,126.9467,1
811,서울특별시 관악구,D2051 1-4R 성현동 40-7,37.487,126.9561,1
812,서울특별시 관악구,D2051 2-4S 성현동 40-7,37.4871,126.9562,1
813,서울특별시 관악구,D2051 3-4S 성현동 40-7,37.487,126.9559,1
814,서울특별시 관악구,D2051 4-4S 성현동 40-7,37.4869,126.956,1
815,서울특별시 관악구,D2052 1-4RL 성현동 41-11,37.4882,126.9551,1
816,서울특별시 관악구,D2052 2-4SZ 성현동 41-11,37.4882,126.955,1
817,서울특별시 관악구,D2052 3-4SZ 성현동 41-11,37.4881,126.9552,1
818,서울특별시 관악구,D2052 4-4SZ 성현동 41-11,37.4883,126.9551,1
819,서울특별시 관악구,D2053 1-5R 성현동 41-719,37.4884,126.9539,1
820,서울특별시 관악구,D2053 2-5SZ 성현동 41-719,37.4883,126.954,1
821,서울특별시 관악구,D2053 3-5SZ 성현동 41-719,37.4883,126.9539,1
822,서울특별시 관악구,D2053 4-5SZ 성현동 41-719,37.4884,126.9538,1
823,서울특별시 관악구,D2053 5-5SZ 성현동 41-719,37.4885,126.9539,1
824,서울특별시 관악구,D2054 1-4RXC 성현동 1712-5,37.4922,126.9489,1
825,서울특별시 관악구,D2054 2-4U 성현동 1712-5,37.4924,126.9491,1
826,서울특별시 관악구,D2054 3-4U 성현동 1712-5,37.4922,126.9492,1
827,서울특별시 관악구,D2054 4-4U 성현동 1712-5,37.4923,126.9487,1
828,서울특별시 관악구,D2055 1-4RX 신림동 1440-25,37.488,126.9257,1
829,서울특별시 관악구,D2055 2-4SZ 신림동 1440-25,37.4879,126.9258,1
830,서울특별시 관악구,D2055 3-4SZ 신림동 1440-25,37.4881,126.9257,1
831,서울특별시 관악구,D2055 4-4SZ 신림동 1440-25,37.488,126.9259,1
832,서울특별시 관악구,D2056 1-5R 신림동 1718,37.4888,126.9224,1
833,서울특별시 관악구,D2056 2-5S 신림동 1718,37.4887,126.9225,1
834,서울특별시 관악구,D2056 3-5S 신림동 1718,37.4888,126.9225,1
835,서울특별시 관악구,D2056 4-5S 신림동 1718,37.4889,126.9224,1
836,서울특별시 관악구,D2056 5-5S 신림동 1718,37.4888,126.9223,1
837,서울특별시 관악구,D2057 1-5RZ 신사동 1464-43,37.4843,126.9242,1
838,서울특별시 관악구,D2057 2-5SZ 신사동 1464-43,37.4843,126.9241,1
839,서울특별시 관악구,D2057 3-5SZ 신사동 1464-43,37.4844,126.9242,1
840,서울특별시 관악구,D2057 4-5SZ 신사동 1464-43,37.4844,126.9243,1
841,서울특별시 관악구,D2057 5-5SZ 신사동 1464-43,37.4843,126.9243,1
842,서울특별시 관악구,D2058 1-3R 신사동 526-4,37.483,126.9172,1
843,서울특별시 관악구,D2058 2-3UC 신사동 526-4,37.483,126.9173,1
844,서울특별시 관악구,D2058 3-3UC 신사동 526-4,37.483,126.9173,1
845,서울특별시 관악구,D2059 1-5RZ 신사동 475-2,37.4882,126.9191,1
846,서울특별시 관악구,D2059 2-5SZ 신사동 475-2,37.4882,126.9192,1
847,서울특별시 관악구,D2059 3-5SZ 신사동 475-2,37.4881,126.9191,1
848,서울특별시 관악구,D2059 4-5SZ 신사동 475-2,37.4882,126.919,1
849,서울특별시 관악구,D2059 5-5SZ 신사동 475-2,37.4883,126.9191,1
850,서울특별시 관악구,D2060 1-5R 신사동 482-23,37.4852,126.9188,1
851,서울특별시 관악구,D2060 2-5SZ 신사동 482-23,37.4853,126.9187,1
852,서울특별시 관악구,D2060 3-5SZ 신사동 482-23,37.4852,126.9189,1
853,서울특별시 관악구,D2060 4-5SZ 신사동 482-23,37.4852,126.9189,1
854,서울특별시 관악구,D2060 5-5SZ 신사동 482-23,37.4852,126.9187,1
855,서울특별시 관악구,D2061 1-4R 신사동 524-33,37.4838,126.9147,1
856,서울특별시 관악구,D2061 2-4S 신사동 524-33,37.4837,126.9149,1
857,서울특별시 관악구,D2061 3-4S 신사동 524-33,37.4837,126.9148,1
858,서울특별시 관악구,D2061 4-4S 신사동 524-33,37.4839,126.9147,1
859,서울특별시 관악구,D2062 1-3R 신사동 528-38,37.4828,126.916,1
860,서울특별시 관악구,D2062 2-3UC 신사동 528-38,37.4828,126.916,1
861,서울특별시 관악구,D2062 3-3UC 신사동 528-38,37.4828,126.9161,1
862,서울특별시 관악구,D2063 1-4R 신원동 1583-42,37.4804,126.9239,1
863,서울특별시 관악구,D2063 2-4S 신원동 1583-42,37.4804,126.924,1
864,서울특별시 관악구,D2063 3-4S 신원동 1583-42,37.4803,126.924,1
865,서울특별시 관악구,D2063 4-4S 신원동 1583-42,37.4806,126.9239,1
866,서울특별시 관악구,D2064 1-1RZ 신원동 1630-30,37.4786,126.9288,1
867,서울특별시 관악구,D2065 1-3R 신원동 412-339,37.4758,126.9301,1
868,서울특별시 관악구,D2065 2-3S 신원동 412-339,37.4758,126.9302,1
869,서울특별시 관악구,D2065 3-3S 신원동 412-339,37.4758,126.93,1
870,서울특별시 관악구,D2066 1-1R 신원동 415-51,37.4764,126.9289,1
871,서울특별시 관악구,D2067 1-5R 은천동 635-260,37.4891,126.9409,1
872,서울특별시 관악구,D2067 2-5S 은천동 635-260,37.4891,126.9409,1
873,서울특별시 관악구,D2067 3-5S 은천동 635-260,37.4892,126.9408,1
874,서울특별시 관악구,D2067 4-5S 은천동 635-260,37.4892,126.941,1
875,서울특별시 관악구,D2067 5-5S 은천동 635-260,37.4891,126.941,1
876,서울특별시 관악구,D2068 1-3R 은천동 635-345,37.4881,126.9406,1
877,서울특별시 관악구,D2068 2-3UC 은천동 635-345,37.4882,126.9407,1
878,서울특별시 관악구,D2068 3-3UC 은천동 635-345,37.4881,126.9406,1
879,서울특별시 관악구,D2069 1-1R 은천동 635-545,37.4881,126.9395,1
880,서울특별시 관악구,D2070 1-2R 은천동 943-4,37.4843,126.9398,1
881,서울특별시 관악구,D2070 2-2UCZ 은천동 943-4,37.4844,126.9399,1
882,서울특별시 관악구,D2071 1-1RXL 은천동 956-3,37.4857,126.938,1
883,서울특별시 관악구,D2072 1-5R 은천동 957-1,37.4863,126.9361,1
884,서울특별시 관악구,D2072 2-5S 은천동 957-1,37.4863,126.936,1
885,서울특별시 관악구,D2072 3-5S 은천동 957-1,37.4864,126.9359,1
886,서울특별시 관악구,D2072 4-5S 은천동 957-1,37.4865,126.9362,1
887,서울특별시 관악구,D2072 5-5S 은천동 957-1,37.4863,126.9362,1
888,서울특별시 관악구,D2073 1-1R 인헌동 산1-8(인헌고~남현동 가는길),37.4724,126.971,1
889,서울특별시 관악구,D2074 1-3RZ 인헌동 180-126,37.4724,126.9666,1
890,서울특별시 관악구,D2074 2-3UCZ 인헌동 180-126,37.4725,126.9666,1
891,서울특별시 관악구,D2074 3-3UCZ 인헌동 180-126,37.4724,126.9667,1
892,서울특별시 관악구,D2075 1-1R 인헌동 1650-22,37.4734,126.9699,1
893,서울특별시 관악구,D2076 1-5R 인헌동 1653-10,37.4749,126.97,1
894,서울특별시 관악구,D2076 2-5S 인헌동 1653-10,37.4749,126.9699,1
895,서울특별시 관악구,D2076 3-5S 인헌동 1653-10,37.4748,126.97,1
896,서울특별시 관악구,D2076 4-5S 인헌동 1653-10,37.4749,126.97,1
897,서울특별시 관악구,D2076 5-5S 인헌동 1653-10,37.4749,126.9701,1
898,서울특별시 관악구,D2077 1-4R 인헌동 180-347,37.4699,126.9666,1
899,서울특별시 관악구,D2077 2-4S 인헌동 180-347,37.4699,126.9667,1
900,서울특별시 관악구,D2077 3-4S 인헌동 180-347,37.4698,126.9667,1
901,서울특별시 관악구,D2077 4-4S 인헌동 180-347,37.47,126.9666,1
902,서울특별시 관악구,D2078 1-5R 인헌동 196-310,37.4748,126.9622,1
903,서울특별시 관악구,D2078 2-5S 인헌동 196-310,37.4749,126.9621,1
904,서울특별시 관악구,D2078 3-5S 인헌동 196-310,37.4749,126.9623,1
905,서울특별시 관악구,D2078 4-5S 인헌동 196-310,37.4748,126.9623,1
906,서울특별시 관악구,D2078 5-5S 인헌동 196-310,37.4747,126.9622,1
907,서울특별시 관악구,D2079 1-6RZ 조원동 1652,37.4827,126.9047,1
908,서울특별시 관악구,D2079 2-6SZ 조원동 1652,37.4826,126.9048,1
909,서울특별시 관악구,D2079 3-6SZ 조원동 1652,37.4827,126.9046,1
910,서울특별시 관악구,D2079 4-6SZ 조원동 1652,37.4828,126.9046,1
911,서울특별시 관악구,D2079 5-6SZ 조원동 1652,37.4826,126.9047,1
912,서울특별시 관악구,D2079 6-6SZ 조원동 1652,37.4828,126.9048,1
913,서울특별시 관악구,D2080 1-4RL 조원동 1658,37.4821,126.9052,1
914,서울특별시 관악구,D2080 2-4S 조원동 1658,37.482,126.9052,1
915,서울특별시 관악구,D2080 3-4S 조원동 1658,37.482,126.9051,1
916,서울특별시 관악구,D2080 4-4S 조원동 1658,37.4822,126.9051,1
917,서울특별시 관악구,D2081 1-5R 조원동 540-11,37.4821,126.9122,1
918,서울특별시 관악구,D2081 2-5S 조원동 540-11,37.4822,126.9122,1
919,서울특별시 관악구,D2081 3-5S 조원동 540-11,37.4821,126.9123,1
920,서울특별시 관악구,D2081 4-5S 조원동 540-11,37.482,126.9122,1
921,서울특별시 관악구,D2081 5-5S 조원동 540-11,37.4821,126.9121,1
922,서울특별시 관악구,D2082 1-4R 중앙동 860-19,37.4823,126.9526,1
923,서울특별시 관악구,D2082 2-4S 중앙동 860-19,37.4824,126.9524,1
924,서울특별시 관악구,D2082 3-4S 중앙동 860-19,37.4824,126.9527,1
925,서울특별시 관악구,D2082 4-4S 중앙동 860-19,37.4823,126.9527,1
926,서울특별시 관악구,D2083 1-4RZ 중앙동 457-155,37.4856,126.9504,1
927,서울특별시 관악구,D2083 2-4SZ 중앙동 457-155,37.4855,126.9505,1
928,서울특별시 관악구,D2083 3-4SZ 중앙동 457-155,37.4857,126.9504,1
929,서울특별시 관악구,D2083 4-4SZ 중앙동 457-155,37.4856,126.9503,1
930,서울특별시 관악구,D2084 1-5R 중앙동 885-1,37.4833,126.948,1
931,서울특별시 관악구,D2084 2-5S 중앙동 885-1,37.4832,126.9479,1
932,서울특별시 관악구,D2084 3-5S 중앙동 885-1,37.4833,126.9478,1
933,서울특별시 관악구,D2084 4-5S 중앙동 885-1,37.4834,126.948,1
934,서울특별시 관악구,D2084 5-5S 중앙동 885-1,37.4833,126.9481,1
935,서울특별시 관악구,D2085 1-5R 청룡동 1521-34,37.4823,126.9402,1
936,서울특별시 관악구,D2085 2-5SZ 청룡동 1521-34,37.4821,126.9401,1
937,서울특별시 관악구,D2085 3-5SZ 청룡동 1521-34,37.4824,126.94,1
938,서울특별시 관악구,D2085 4-5SZ 청룡동 1521-34,37.4824,126.9403,1
939,서울특별시 관악구,D2085 5-5SZ 청룡동 1521-34,37.4822,126.9403,1
940,서울특별시 관악구,D2086 1-1RZ 청룡동 1526-2,37.4811,126.9418,1
941,서울특별시 관악구,D2087 1-1RZ 청룡동 1577-1,37.4787,126.9465,1
942,서울특별시 관악구,D2088 1-5R 청룡동 1579-33,37.4766,126.9469,1
943,서울특별시 관악구,D2088 2-5S 청룡동 1579-33,37.4766,126.9471,1
944,서울특별시 관악구,D2088 3-5S 청룡동 1579-33,37.4766,126.9468,1
945,서울특별시 관악구,D2088 4-5S 청룡동 1579-33,37.4765,126.9469,1
946,서울특별시 관악구,D2088 5-5S 청룡동 1579-33,37.4767,126.9469,1
947,서울특별시 관악구,D2089 1-5R 청룡동 915-5,37.4805,126.9447,1
948,서울특별시 관악구,D2089 2-5S 청룡동 915-5,37.4806,126.9447,1
949,서울특별시 관악구,D2089 3-5S 청룡동 915-5,37.4804,126.9446,1
950,서울특별시 관악구,D2089 4-5S 청룡동 915-5,37.4805,126.9445,1
951,서울특별시 관악구,D2089 5-5S 청룡동 915-5,37.4805,126.9447,1
952,서울특별시 관악구,D2090 1-4RL 청룡동 917-1,37.4799,126.946,1
953,서울특별시 관악구,D2090 2-4SZ 청룡동 917-1,37.4799,126.9458,1
954,서울특별시 관악구,D2090 3-4SZ 청룡동 917-1,37.48,126.946,1
955,서울특별시 관악구,D2090 4-4SZ 청룡동 917-1,37.4799,126.9461,1
956,서울특별시 관악구,D2091 1-4RXXC 청림동 13-44,37.4883,126.9591,1
957,서울특별시 관악구,D2091 2-4U 청림동 13-44,37.4883,126.9592,1
958,서울특별시 관악구,D2091 3-4U 청림동 13-44,37.4883,126.959,1
959,서울특별시 관악구,D2091 4-4U 청림동 13-44,37.4884,126.9591,1
960,서울특별시 관악구,D2092 1-4R 청림동 14-46,37.4869,126.9584,1
961,서울특별시 관악구,D2092 2-4S 청림동 14-46,37.487,126.9585,1
962,서울특별시 관악구,D2092 3-4S 청림동 14-46,37.4869,126.9584,1
963,서울특별시 관악구,D2092 4-4S 청림동 14-46,37.487,126.9584,1
964,서울특별시 관악구,D2093 1-3R 청림동 4-39,37.4902,126.9598,1
965,서울특별시 관악구,D2093 2-3UC 청림동 4-39,37.4902,126.9599,1
966,서울특별시 관악구,D2093 3-3UC 청림동 4-39,37.4903,126.9598,1
967,서울특별시 관악구,D2094 1-1R 행운동 100-123,37.4819,126.958,1
968,서울특별시 관악구,D2095 1-5RZ 행운동 100-75,37.4819,126.959,1
969,서울특별시 관악구,D2095 2-5SZ 행운동 100-75,37.4819,126.959,1
970,서울특별시 관악구,D2095 3-5SZ 행운동 100-75,37.4819,126.9591,1
971,서울특별시 관악구,D2095 4-5SZ 행운동 100-75,37.482,126.9591,1
972,서울특별시 관악구,D2095 5-5SZ 행운동 100-75,37.482,126.9589,1
973,서울특별시 관악구,D2096 1-5R 행운동 106-5,37.4807,126.9595,1
974,서울특별시 관악구,D2096 2-5S 행운동 106-5,37.4807,126.9594,1
975,서울특별시 관악구,D2096 3-5S 행운동 106-5,37.4806,126.9595,1
976,서울특별시 관악구,D2096 4-5S 행운동 106-5,37.4808,126.9597,1
977,서울특별시 관악구,D2096 5-5S 행운동 106-5,37.4808,126.9596,1
978,서울특별시 관악구,D2097 1-4R 행운동 148-28,37.4798,126.9631,1
979,서울특별시 관악구,D2097 2-4S 행운동 148-28,37.4799,126.963,1
980,서울특별시 관악구,D2097 3-4S 행운동 148-28,37.4798,126.9631,1
981,서울특별시 관악구,D2097 4-4S 행운동 148-28,37.4797,126.963,1
982,서울특별시 관악구,D2098 1-1RLZ 행운동 1688-3,37.4784,126.9645,1
983,서울특별시 관악구,D2099 1-4RL 행운동 1688-82,37.4767,126.9664,1
984,서울특별시 관악구,D2099 2-4SC 행운동 1688-82,37.4768,126.9663,1
985,서울특별시 관악구,D2099 3-4SC 행운동 1688-82,37.4768,126.9665,1
986,서울특별시 관악구,D2099 4-4SC 행운동 1688-82,37.4766,126.9663,1
987,서울특별시 관악구,D2100 1-1R 행운동 63-34,37.482,126.9554,1
988,서울특별시 관악구,D2101 1-1R 보라매동 715(이동형),37.4927,126.9294,1
989,서울특별시 관악구,D2102 1-3R 은천동 635-146,37.4898,126.9421,1
990,서울특별시 관악구,D2102 2-3UC 은천동 635-146,37.4897,126.9421,1
991,서울특별시 관악구,D2102 3-3UC 은천동 635-146,37.4898,126.9422,1
992,서울특별시 관악구,D2103 1-4R 청림동 16-44,37.4864,126.9589,1
993,서울특별시 관악구,D2103 2-4S 청림동 16-44,37.4864,126.9587,1
994,서울특별시 관악구,D2103 3-4S 청림동 16-44,37.4863,126.9591,1
995,서울특별시 관악구,D2103 4-4S 청림동 16-44,37.4865,126.9591,1
996,서울특별시 관악구,D2104 1-1RLZ 난곡동 646-273(이동형),37.4693,126.9243,1
997,서울특별시 관악구,D2104 2-5S 난곡동 646-273,37.4693,126.9243,1
998,서울특별시 관악구,D2104 3-5S 난곡동 646-273,37.4694,126.9243,1
999,서울특별시 관악구,D2104 4-5S 난곡동 646-273,37.4693,126.9243,1
1000,서울특별시 관악구,D2104 5-5S 난곡동 646-273,37.4694,126.9244,1
1001,서울특별시 관악구,D2105 1-4R 난곡동 661-54,37.4661,126.9212,1
1002,서울특별시 관악구,D2105 2-4U 난곡동 661-54,37.4662,126.9212,1
1003,서울특별시 관악구,D2105 3-4U 난곡동 661-54,37.4661,126.9211,1
1004,서울특별시 관악구,D2105 4-4U 난곡동 661-54,37.466,126.9211,1
1005,서울특별시 관악구,D2106 1-4RL 삼성동 354-35,37.4689,126.929,1
1006,서울특별시 관악구,D2106 2-4S 삼성동 354-35,37.4688,126.929,1
1007,서울특별시 관악구,D2106 3-4S 삼성동 354-35,37.469,126.9288,1
1008,서울특별시 관악구,D2106 4-4S 삼성동 354-35,37.469,126.929,1
1009,서울특별시 관악구,D3001 1-1R 보라매동 662-102,37.4891,126.9337,1
1010,서울특별시 관악구,D3002 1-4RZ  난곡동 709-11,37.4716,126.9179,1
1011,서울특별시 관악구,D3002 2-4SZ  난곡동 709-11,37.4716,126.918,1
1012,서울특별시 관악구,D3002 3-4SZ 난곡동 709-11,37.4715,126.9179,1
1013,서울특별시 관악구,D3002 4-4SZ  난곡동 709-11,37.4713,126.9179,1
1014,서울특별시 관악구,D3003 1-5R 서림동 110-83,37.4723,126.9345,1
1015,서울특별시 관악구,D3003 2-5S 서림동 110-83,37.4721,126.9344,1
1016,서울특별시 관악구,D3003 3-5S 서림동 110-83,37.4722,126.9346,1
1017,서울특별시 관악구,D3003 4-5S 서림동 110-83,37.4723,126.9343,1
1018,서울특별시 관악구,D3003 5-5S 서림동 110-83,37.4724,126.9344,1
1019,서울특별시 관악구,D3004 1-1R 신사동 1464-64,37.4838,126.9242,1
1020,서울특별시 관악구,D3005 1-1R 서원동 92-190,37.4786,126.9352,1
1021,서울특별시 관악구,D3006 1-3R 낙성대동 1628-32,37.4771,126.9606,1
1022,서울특별시 관악구,D3006 2-3S 낙성대동 1628-32,37.4771,126.9606,1
1023,서울특별시 관악구,D3006 3-3S 낙성대동 1628-32,37.4772,126.9606,1
1024,서울특별시 관악구,D3007 1-5R 낙성대동 산54-10,37.4755,126.9551,1
1025,서울특별시 관악구,D3007 2-5S 낙성대동 산54-10,37.4756,126.9549,1
1026,서울특별시 관악구,D3007 3-5S 낙성대동 산54-10,37.4756,126.9551,1
1027,서울특별시 관악구,D3007 4-5S 낙성대동 산54-10,37.4755,126.9552,1
1028,서울특별시 관악구,D3007 5-5S 낙성대동 산54-10,37.4754,126.955,1
1029,서울특별시 관악구,D3008 1-5RL 낙성대동 1612-13,37.4786,126.9556,1
1030,서울특별시 관악구,D3008 2-5S 낙성대동 1612-13,37.4785,126.9557,1
1031,서울특별시 관악구,D3008 3-5S 낙성대동 1612-13,37.4785,126.9555,1
1032,서울특별시 관악구,D3008 4-5S 낙성대동 1612-13,37.4786,126.9555,1
1033,서울특별시 관악구,D3008 5-5S 낙성대동 1612-13,37.4787,126.9555,1
1034,서울특별시 관악구,D3009 1-1R 낙성대동 738-340,37.4735,126.9602,1
1035,서울특별시 관악구,D3010 1-2R 난향동 675-17,37.4636,126.9145,1
1036,서울특별시 관악구,D3010 2-2S 난향동 675-17,37.4636,126.9146,1
1037,서울특별시 관악구,D3011 1-4R 난향동 675-123,37.4636,126.9169,1
1038,서울특별시 관악구,D3011 2-4S 난향동 675-123,37.4636,126.9168,1
1039,서울특별시 관악구,D3011 3-4S 난향동 675-123,37.4635,126.9168,1
1040,서울특별시 관악구,D3011 4-4S 난향동 675-123,37.4636,126.917,1
1041,서울특별시 관악구,D3012 1-4R 남현동 1086-50,37.4737,126.9787,1
1042,서울특별시 관악구,D3012 2-4S 남현동 1086-50,37.4737,126.9787,1
1043,서울특별시 관악구,D3012 3-4S 남현동 1086-50,37.4736,126.9786,1
1044,서울특별시 관악구,D3012 4-4S 남현동 1086-50,37.4735,126.9787,1
1045,서울특별시 관악구,D3013 1-1R 남현동 1083-28 맞은편,37.4736,126.977,1
1046,서울특별시 관악구,D3014 1-4RXC 남현동 1083-3,37.4744,126.9762,1
1047,서울특별시 관악구,D3014 2-4U 남현동 1083-3,37.4743,126.9761,1
1048,서울특별시 관악구,D3014 3-4U 남현동 1083-3,37.4744,126.976,1
1049,서울특별시 관악구,D3014 4-4U 남현동 1083-3,37.4745,126.9763,1
1050,서울특별시 관악구,D3015 1-1R 남현동 1063-2,37.475,126.979,1
1051,서울특별시 관악구,D3016 1-1R 대학동 251-179,37.4657,126.9384,1
1052,서울특별시 관악구,D3017 1-4R 대학동 251-214,37.4648,126.9399,1
1053,서울특별시 관악구,D3017 2-4S 대학동 251-214,37.4649,126.9398,1
1054,서울특별시 관악구,D3017 3-4S 대학동 251-214,37.4647,126.9398,1
1055,서울특별시 관악구,D3017 4-4S 대학동 251-214,37.4647,126.9399,1
1056,서울특별시 관악구,D3018 1-4RZ 대학동 251-161,37.4668,126.9387,1
1057,서울특별시 관악구,D3018 2-4SZ 대학동 251-161,37.4669,126.9387,1
1058,서울특별시 관악구,D3018 3-4SZ 대학동 251-161,37.4668,126.9388,1
1059,서울특별시 관악구,D3018 4-4SZ 대학동 251-161,37.4667,126.9387,1
1060,서울특별시 관악구,D3019 1-1RL 대학동 254-20,37.4652,126.935,1
1061,서울특별시 관악구,D3020 1-2R 대학동 251-149,37.4652,126.9383,1
1062,서울특별시 관악구,D3020 2-2UC 대학동 251-149,37.4653,126.9383,1
1063,서울특별시 관악구,D3021 1-1R 미성동 756-16,37.4753,126.9167,1
1064,서울특별시 관악구,D3022 1-1R 미성동 산121-6(아카시아마을),37.4721,126.911,1
1065,서울특별시 관악구,D3023 1-6RL 보라매동 685-66호 맞은편,37.4919,126.932,1
1066,서울특별시 관악구,D3023 2-6S 보라매동 685-66,37.492,126.9321,1
1067,서울특별시 관악구,D3023 3-6S 보라매동 685-66,37.4919,126.9321,1
1068,서울특별시 관악구,D3023 4-6S 보라매동 685-66호 맞은편,37.4919,126.9319,1
1069,서울특별시 관악구,D3023 5-6S 보라매동 685-66호 맞은편,37.492,126.9319,1
1070,서울특별시 관악구,D3023 6-6S 보라매동 685-66호 맞은편,37.4921,126.9324,1
1071,서울특별시 관악구,D3024 1-1R 보라매동 971-16,37.4893,126.9288,1
1072,서울특별시 관악구,D3025 1-1RLZ 보라매동 679 당곡고정문,37.4912,126.934,1
1073,서울특별시 관악구,D3026 1-1R 보라매동 673-72호 앞,37.4904,126.934,1
1074,서울특별시 관악구,D3027 1-1R 보라매동 647-90,37.489,126.9374,1
1075,서울특별시 관악구,D3028 1-5RL 삼성동 382-5,37.4713,126.9302,1
1076,서울특별시 관악구,D3028 2-5S 삼성동 382-5,37.4712,126.9302,1
1077,서울특별시 관악구,D3028 3-5S 삼성동 382-5,37.4713,126.9302,1
1078,서울특별시 관악구,D3028 4-5S 삼성동 382-5,37.4714,126.9303,1
1079,서울특별시 관악구,D3028 5-5S 삼성동 382-5,37.4713,126.9303,1
1080,서울특별시 관악구,D3029 1-3RXCL 삼성동 361-71,37.4693,126.9307,1
1081,서울특별시 관악구,D3029 2-3U 삼성동 361-71,37.4693,126.9306,1
1082,서울특별시 관악구,D3029 3-3U 삼성동 361-71,37.4693,126.9308,1
1083,서울특별시 관악구,D3030 1-4R 봉천동 1645-1,37.4741,126.9682,1
1084,서울특별시 관악구,D3030 2-4S 봉천동 1645-1,37.4742,126.9681,1
1085,서울특별시 관악구,D3030 3-4S 봉천동 1645-1,37.4741,126.9684,1
1086,서울특별시 관악구,D3030 4-4S 봉천동 1645-1,37.4742,126.9683,1
1087,서울특별시 관악구,D3031 1-4R 서림동 403-1,37.4742,126.9334,1
1088,서울특별시 관악구,D3031 2-4S 서림동 403-1,37.4742,126.9334,1
1089,서울특별시 관악구,D3031 3-4S 서림동 403-1,37.4742,126.9335,1
1090,서울특별시 관악구,D3031 4-4S 서림동 403-1,37.4741,126.9335,1
1091,서울특별시 관악구,D3032 1-5RLZ 서림동 105-35,37.4734,126.9387,1
1092,서울특별시 관악구,D3032 2-5SZ 서림동 105-35,37.4734,126.9386,1
1093,서울특별시 관악구,D3032 3-5SZ 서림동 105-35,37.4736,126.9387,1
1094,서울특별시 관악구,D3032 4-5SZ 서림동 105-35,37.4735,126.9389,1
1095,서울특별시 관악구,D3032 5-5SZ 서림동 105-35,37.4733,126.9388,1
1096,서울특별시 관악구,D3033 1-1RZ 서림동 103-223,37.4716,126.9414,1
1097,서울특별시 관악구,D3034 1-4R 서림동 98-199,37.4738,126.9423,1
1098,서울특별시 관악구,D3034 2-4S 서림동 98-199,37.4739,126.9423,1
1099,서울특별시 관악구,D3034 3-4S 서림동 98-199,37.4739,126.9422,1
1100,서울특별시 관악구,D3034 4-4S 서림동 98-199,37.4738,126.9423,1
1101,서울특별시 관악구,D3035 1-1RZ 서림동 103-170,37.4722,126.9421,1
1102,서울특별시 관악구,D3036 1-1R 서림동 95-76,37.4773,126.9388,1
1103,서울특별시 관악구,D3037 1-5R 서원동 409-202,37.4769,126.9338,1
1104,서울특별시 관악구,D3037 2-5S 서원동 409-202,37.4768,126.9338,1
1105,서울특별시 관악구,D3037 3-5S 서원동 409-202,37.4769,126.9337,1
1106,서울특별시 관악구,D3037 4-5S 서원동 409-202,37.477,126.9338,1
1107,서울특별시 관악구,D3037 5-5S 서원동 409-202,37.4769,126.9339,1
1108,서울특별시 관악구,D3038 1-5R 서원동 1506-7 맞은편,37.483,126.9356,1
1109,서울특별시 관악구,D3038 2-5S 서원동 1506-7 맞은편,37.483,126.9357,1
1110,서울특별시 관악구,D3038 3-5S 서원동 1506-7 맞은편,37.483,126.9355,1
1111,서울특별시 관악구,D3038 4-5S 서원동 1506-7 맞은편,37.4832,126.9356,1
1112,서울특별시 관악구,D3038 5-5S 서원동 1506-7 맞은편,37.4832,126.9357,1
1113,서울특별시 관악구,D3039 1-3R 서원동 10-104,37.4832,126.9342,1
1114,서울특별시 관악구,D3039 2-3S 서원동 10-104,37.483,126.9342,1
1115,서울특별시 관악구,D3039 3-3S 서원동 10-104,37.4833,126.9342,1
1116,서울특별시 관악구,D3040 1-4R 서원동 10-186,37.4821,126.9339,1
1117,서울특별시 관악구,D3040 2-4S 서원동 10-186,37.4822,126.9338,1
1118,서울특별시 관악구,D3040 3-4S 서원동 10-186,37.482,126.9339,1
1119,서울특별시 관악구,D3040 4-4S 서원동 10-186,37.4821,126.934,1
1120,서울특별시 관악구,D3041 1-1R 서원동 92-205,37.4781,126.9368,1
1121,서울특별시 관악구,D3042 1-5R 서원동 92-239,37.478,126.9354,1
1122,서울특별시 관악구,D3042 2-5S 서원동 92-239,37.4779,126.9355,1
1123,서울특별시 관악구,D3042 3-5S 서원동 92-239,37.4779,126.9354,1
1124,서울특별시 관악구,D3042 4-5S 서원동 92-239,37.4781,126.9354,1
1125,서울특별시 관악구,D3042 5-5S 서원동 92-239,37.478,126.9353,1
1126,서울특별시 관악구,D3043 1-1R 서원동 1641-52,37.4806,126.9305,1
1127,서울특별시 관악구,D3044 1-4RL 서원동 10-299,37.4824,126.9321,1
1128,서울특별시 관악구,D3044 2-4SZ 서원동 10-299,37.4824,126.932,1
1129,서울특별시 관악구,D3044 3-4SZ 서원동 10-299,37.4825,126.9321,1
1130,서울특별시 관악구,D3044 4-4SZ 서원동 10-299,37.4824,126.9323,1
1131,서울특별시 관악구,D3045 1-1R 서원동 75-8,37.4839,126.931,1
1132,서울특별시 관악구,D3046 1-4R 성현동 480-51,37.4885,126.9482,1
1133,서울특별시 관악구,D3046 2-4S 성현동 480-51,37.4885,126.9482,1
1134,서울특별시 관악구,D3046 3-4S 성현동 480-51,37.4885,126.9482,1
1135,서울특별시 관악구,D3046 4-4S 성현동 480-51,37.4886,126.9483,1
1136,서울특별시 관악구,D3047 1-2SZ 청림동 10-36,37.4891,126.959,1
1137,서울특별시 관악구,D3047 2-2SZ 청림동 10-36,37.489,126.959,1
1138,서울특별시 관악구,D3048 1-4R 신림동 1430-1,37.4884,126.9276,1
1139,서울특별시 관악구,D3048 2-4S 신림동 1430-1,37.4883,126.9276,1
1140,서울특별시 관악구,D3048 3-4S 신림동 1430-1,37.4884,126.9277,1
1141,서울특별시 관악구,D3048 4-4S 신림동 1430-1,37.4883,126.9275,1
1142,서울특별시 관악구,D3049 1-1R 신림동 1422-24,37.4846,126.9311,1
1143,서울특별시 관악구,D3050 5-5S 신림동 1430-12,37.4873,126.9281,1
1144,서울특별시 관악구,D3051 1-1R 신사동 475-75,37.4887,126.9185,1
1145,서울특별시 관악구,D3052 1-5R 신사동 462-12,37.4861,126.921,1
1146,서울특별시 관악구,D3052 2-5S 신사동 462-12,37.4862,126.9212,1
1147,서울특별시 관악구,D3052 3-5SC 신사동 462-12,37.486,126.921,1
1148,서울특별시 관악구,D3052 4-5S 신사동 462-12,37.4861,126.9209,1
1149,서울특별시 관악구,D3052 5-5SC 신사동 462-12,37.4862,126.921,1
1150,서울특별시 관악구,D3053 1-5RZ 신사동 463-76,37.4855,126.9237,1
1151,서울특별시 관악구,D3053 2-5SZ 신사동 463-76,37.4855,126.9237,1
1152,서울특별시 관악구,D3053 3-5SZ 신사동 463-76,37.4854,126.9237,1
1153,서울특별시 관악구,D3053 4-5SZ 신사동 463-76,37.4854,126.924,1
1154,서울특별시 관악구,D3053 5-5SZ 신사동 463-76,37.4855,126.9238,1
1155,서울특별시 관악구,D3054 1-1R 신원동 414-21,37.4777,126.9289,1
1156,서울특별시 관악구,D3055 1-3R 신원동 412-38,37.4778,126.9303,1
1157,서울특별시 관악구,D3055 2-3UC 신원동 412-38,37.4778,126.9303,1
1158,서울특별시 관악구,D3055 3-3UC 신원동 412-38,37.4777,126.9303,1
1159,서울특별시 관악구,D3056 1-1R 신원동 1626-22,37.4783,126.9258,1
1160,서울특별시 관악구,D3057 1-5R 신원동 440-41,37.4813,126.9228,1
1161,서울특별시 관악구,D3057 2-5S 신원동 440-41,37.4812,126.9228,1
1162,서울특별시 관악구,D3057 3-5S 신원동 440-41,37.4813,126.9227,1
1163,서울특별시 관악구,D3057 4-5S 신원동 440-41,37.4813,126.923,1
1164,서울특별시 관악구,D3057 5-5S 신원동 440-41,37.4814,126.9228,1
1165,서울특별시 관악구,D3058 1-5R 신원동 1634-96,37.4789,126.9313,1
1166,서울특별시 관악구,D3058 2-5S 신원동 1634-96,37.4788,126.9314,1
1167,서울특별시 관악구,D3058 3-5S 신원동 1634-96,37.4789,126.9312,1
1168,서울특별시 관악구,D3058 4-5S 신원동 1634-96,37.4788,126.9312,1
1169,서울특별시 관악구,D3058 5-5S 신원동 1634-96,37.4789,126.9314,1
1170,서울특별시 관악구,D3059 1-1R 신원동 1635-118,37.4792,126.9295,1
1171,서울특별시 관악구,D3060 1-1R 신원동 1634-1,37.4799,126.9303,1
1172,서울특별시 관악구,D3061 1-1R 은천동 910-44,37.4838,126.946,1
1173,서울특별시 관악구,D3062 1-5R 은천동 635-480호 코너,37.4891,126.9399,1
1174,서울특별시 관악구,D3062 2-5S 은천동 635-480호 코너,37.489,126.9398,1
1175,서울특별시 관악구,D3062 3-5S 은천동 635-480호 코너,37.4891,126.9398,1
1176,서울특별시 관악구,D3062 4-5S 은천동 635-480호 코너,37.4891,126.9399,1
1177,서울특별시 관악구,D3062 5-5S 은천동 635-480호 코너,37.489,126.94,1
1178,서울특별시 관악구,D3063 1-5R 인헌동 180-196,37.4698,126.9695,1
1179,서울특별시 관악구,D3063 2-5S 인헌동 180-196,37.4699,126.9695,1
1180,서울특별시 관악구,D3063 3-5S 인헌동 180-196,37.4699,126.9697,1
1181,서울특별시 관악구,D3063 4-5S 인헌동 180-196,37.4697,126.9696,1
1182,서울특별시 관악구,D3063 5-5S 인헌동 180-196,37.4698,126.9694,1
1183,서울특별시 관악구,D3064 1-1R 인헌동 180-38,37.4706,126.9651,1
1184,서울특별시 관악구,D3065 1-5R 인헌동 196-215,37.4729,126.9647,1
1185,서울특별시 관악구,D3065 2-5S 인헌동 196-215,37.4729,126.9648,1
1186,서울특별시 관악구,D3065 3-5S 인헌동 196-215,37.4729,126.9647,1
1187,서울특별시 관악구,D3065 4-5S 인헌동 196-215,37.4728,126.9647,1
1188,서울특별시 관악구,D3065 5-5S 인헌동 196-215,37.4728,126.9648,1
1189,서울특별시 관악구,D3066 1-5R 인헌동 1656-5,37.4755,126.9656,1
1190,서울특별시 관악구,D3066 2-5S 인헌동 1656-5,37.4756,126.9654,1
1191,서울특별시 관악구,D3066 3-5S 인헌동 1656-5,37.4757,126.9657,1
1192,서울특별시 관악구,D3066 4-5S 인헌동 1656-5,37.4754,126.9658,1
1193,서울특별시 관악구,D3066 5-5S 인헌동 1656-5,37.4753,126.9656,1
1194,서울특별시 관악구,D3067 1-3R 인헌동 180-423,37.4695,126.9658,1
1195,서울특별시 관악구,D3067 2-3UC 인헌동 180-423,37.4696,126.9658,1
1196,서울특별시 관악구,D3067 3-3UC 인헌동 180-423,37.4696,126.9659,1
1197,서울특별시 관악구,D3068 1-5RXC 조원동 537-33,37.4825,126.9144,1
1198,서울특별시 관악구,D3068 2-5U 조원동 537-33,37.4826,126.9142,1
1199,서울특별시 관악구,D3068 3-5UC 조원동 537-33,37.4824,126.9142,1
1200,서울특별시 관악구,D3068 4-5U 조원동 537-33,37.4824,126.9144,1
1201,서울특별시 관악구,D3068 5-5U 조원동 537-33,37.4826,126.9143,1
1202,서울특별시 관악구,D3069 1-1RZ 조원동 1662-13,37.4812,126.9022,1
1203,서울특별시 관악구,D3070 1-3R 조원동 1666-25,37.4799,126.9002,1
1204,서울특별시 관악구,D3070 2-3UC 조원동 1666-25,37.48,126.9002,1
1205,서울특별시 관악구,D3070 3-3UC 조원동 1666-25,37.4799,126.9003,1
1206,서울특별시 관악구,D3071 1-1R 조원동 1649-13,37.4847,126.9077,1
1207,서울특별시 관악구,D3072 1-4RZ 중앙동 1519-8,37.4839,126.9517,1
1208,서울특별시 관악구,D3072 2-4SZ 중앙동 1519-8,37.4839,126.9516,1
1209,서울특별시 관악구,D3072 3-4SZ 중앙동 1519-8,37.4838,126.9517,1
1210,서울특별시 관악구,D3072 4-4SZ 중앙동 1519-8,37.484,126.9517,1
1211,서울특별시 관악구,D3073 1-4RX 봉천동 32-2,37.4835,126.9541,1
1212,서울특별시 관악구,D3073 2-4S 중앙동 32-2,37.4834,126.954,1
1213,서울특별시 관악구,D3073 3-4S 중앙동 32-2,37.4835,126.954,1
1214,서울특별시 관악구,D3073 4-4S 중앙동 32-2,37.4836,126.9542,1
1215,서울특별시 관악구,D3074 1-4R 중앙동 1516-1,37.4843,126.951,1
1216,서울특별시 관악구,D3074 2-4S 중앙동 1516-1,37.4843,126.9508,1
1217,서울특별시 관악구,D3074 3-4S 중앙동 1516-1,37.4843,126.9511,1
1218,서울특별시 관악구,D3074 4-4S 중앙동 1516-1,37.4842,126.951,1
1219,서울특별시 관악구,D3075 1-1R 청룡동 869-13,37.4807,126.9517,1
1220,서울특별시 관악구,D3076 1-5R 청림동 1-996호 앞,37.4909,126.9572,1
1221,서울특별시 관악구,D3076 2-5S 청림동 1-996호 앞,37.4909,126.9571,1
1222,서울특별시 관악구,D3076 3-5S 청림동 1-996호 앞,37.491,126.9574,1
1223,서울특별시 관악구,D3076 4-5S 청림동 1-996호 앞,37.4908,126.9572,1
1224,서울특별시 관악구,D3076 5-5S 청림동 1-996호 앞,37.4909,126.9574,1
1225,서울특별시 관악구,D3077 1-1RZ 청림동 1-610,37.4911,126.96,1
1226,서울특별시 관악구,D3078 1-5RZ 행운동 66-64호 코너,37.482,126.957,1
1227,서울특별시 관악구,D3078 2-5SZ행운동 66-64호 코너,37.4821,126.957,1
1228,서울특별시 관악구,D3078 3-5SZ 행운동 66-64호 코너,37.482,126.9571,1
1229,서울특별시 관악구,D3078 4-5SZ 행운동 66-64호 코너,37.482,126.9569,1
1230,서울특별시 관악구,D3078 5-5SZ 행운동 66-64호 코너,37.4821,126.9569,1
1231,서울특별시 관악구,D3079 1-5R 행운동 100-317,37.4809,126.9608,1
1232,서울특별시 관악구,D3079 2-5S 행운동 100-317,37.4809,126.9607,1
1233,서울특별시 관악구,D3079 3-5S 행운동 100-317,37.4809,126.9608,1
1234,서울특별시 관악구,D3079 4-5S 행운동 100-317,37.4808,126.9608,1
1235,서울특별시 관악구,D3079 5-5S 행운동 100-317,37.4808,126.9607,1
1236,서울특별시 관악구,D3080 1-1R 행운동 1724-2,37.4833,126.9597,1
1237,서울특별시 관악구,D3081 1-1R 행운동 1690-171,37.4765,126.9677,1
1238,서울특별시 관악구,D3082 1-5R 행운동 1686-31앞,37.4773,126.9637,1
1239,서울특별시 관악구,D3082 2-5S 행운동 1686-31앞,37.4773,126.9635,1
1240,서울특별시 관악구,D3082 3-5S 행운동 1686-31앞,37.4772,126.9636,1
1241,서울특별시 관악구,D3082 4-5S 행운동 1686-31앞,37.4772,126.9638,1
1242,서울특별시 관악구,D3082 5-5S 행운동 1686-31앞,37.4773,126.9637,1
1243,서울특별시 관악구,D3083 1-1RZ 행운동 100-423,37.483,126.9588,1
1244,서울특별시 관악구,D3084 1-5R 행운동 1682-11호,37.4791,126.9618,1
1245,서울특별시 관악구,D3084 2-5S 행운동 1682-11호,37.4791,126.962,1
1246,서울특별시 관악구,D3084 3-5S 행운동 1682-11호,37.4791,126.9618,1
1247,서울특별시 관악구,D3084 4-5S 행운동 1682-11호,37.4792,126.9617,1
1248,서울특별시 관악구,D3084 5-5S 행운동 1682-11호,37.4793,126.962,1
1249,서울특별시 관악구,D3085 1-1RZ 행운동 1690-77,37.4785,126.9657,1
1250,서울특별시 관악구,D3086 1-1R 행운동 1692-1,37.4761,126.9692,1
1251,서울특별시 관악구,D3087 1-5RZ 난곡동 610-310,37.4756,126.9254,1
1252,서울특별시 관악구,D3087 2-5SZ 난곡동 610-310,37.4755,126.9255,1
1253,서울특별시 관악구,D3087 3-5SZ 난곡동 610-310,37.4756,126.9253,1
1254,서울특별시 관악구,D3087 4-5SZ 난곡동 610-310,37.4758,126.9253,1
1255,서울특별시 관악구,D3087 5-5SZ 난곡동 610-310,37.4757,126.9255,1
1256,서울특별시 관악구,D3088 1-5RZ 난곡동 610-579,37.4747,126.9251,1
1257,서울특별시 관악구,D3088 2-5SZ 난곡동 610-579,37.4748,126.925,1
1258,서울특별시 관악구,D3088 3-5SZ 난곡동 610-579,37.4748,126.9252,1
1259,서울특별시 관악구,D3088 4-5SZ 난곡동 610-579,37.4747,126.9251,1
1260,서울특별시 관악구,D3088 5-5SZ 난곡동 610-579,37.4747,126.925,1
1261,서울특별시 관악구,D3089 1-3R 난곡동 624-8,37.4722,126.9211,1
1262,서울특별시 관악구,D3089 2-3SC 난곡동 624-8,37.4722,126.921,1
1263,서울특별시 관악구,D3089 3-3SC 난곡동 624-8,37.4721,126.9211,1
1264,서울특별시 관악구,D3090 1-3R 난곡동 661-68,37.4653,126.9202,1
1265,서울특별시 관악구,D3090 2-3S 난곡동 661-68,37.4654,126.9201,1
1266,서울특별시 관악구,D3090 3-3S 난곡동 661-68,37.4654,126.9204,1
1267,서울특별시 관악구,D3091 1-4R 난곡동 698-7,37.4672,126.919,1
1268,서울특별시 관악구,D3091 2-4S 난곡동 698-7,37.4672,126.9191,1
1269,서울특별시 관악구,D3091 3-4S 난곡동 698-7,37.4672,126.9189,1
1270,서울특별시 관악구,D3091 4-4S 난곡동 698-7,37.4672,126.9193,1
1271,서울특별시 관악구,D3092 1-2RZ 난곡동 707-9,37.4713,126.9191,1
1272,서울특별시 관악구,D3092 2-2UCZ 난곡동 707-9,37.4714,126.9192,1
1273,서울특별시 관악구,D3093 1-1R 미성동 1563-45,37.4744,126.9148,1
1274,서울특별시 관악구,D3094 1-5R 미성동 1566-1,37.4798,126.9156,1
1275,서울특별시 관악구,D3094 2-5S 미성동 1566-1,37.4799,126.9155,1
1276,서울특별시 관악구,D3094 3-5S 미성동 1566-1,37.4798,126.9157,1
1277,서울특별시 관악구,D3094 4-5S 미성동 1566-1,37.4796,126.9156,1
1278,서울특별시 관악구,D3094 5-5S 미성동 1566-1,37.4798,126.9154,1
1279,서울특별시 관악구,D3095 1-3S 미성동 604-20,37.4756,126.9172,1
1280,서울특별시 관악구,D3095 2-3S 미성동 604-20,37.4757,126.9172,1
1281,서울특별시 관악구,D3095 3-3S 미성동 604-20,37.4756,126.9171,1
1282,서울특별시 관악구,D3096 1-2R 미성동 726-5,37.4737,126.9177,1
1283,서울특별시 관악구,D3096 2-2UC 미성동 726-5,37.4738,126.9177,1
1284,서울특별시 관악구,D3097 1-3RXC 미성동 750-1맞은편,37.4768,126.9135,1
1285,서울특별시 관악구,D3097 2-3UC 미성동 750-1맞은편,37.4768,126.9135,1
1286,서울특별시 관악구,D3097 3-3UC 미성동 750-1맞은편,37.4767,126.9135,1
1287,서울특별시 관악구,D3098 1-2S 미성동 756-53,37.4756,126.9156,1
1288,서울특별시 관악구,D3098 2-2S 미성동 756-53,37.4755,126.9157,1
1289,서울특별시 관악구,D3099 1-5RL 청룡동 1530-18,37.4808,126.9393,1
1290,서울특별시 관악구,D3099 2-5SZ 청룡동 1530-18,37.4807,126.9395,1
1291,서울특별시 관악구,D3099 3-5SZ 청룡동 1530-18,37.4807,126.9392,1
1292,서울특별시 관악구,D3099 4-5SZ 청룡동 1530-18,37.4808,126.9392,1
1293,서울특별시 관악구,D3099 5-5SZ 청룡동 1530-18,37.4809,126.9394,1
1294,서울특별시 관악구,D3100 1-4RLZ 청룡동 1534-39호,37.4792,126.9392,1
1295,서울특별시 관악구,D3100 2-4SZ 청룡동 1534-39호,37.4788,126.9396,1
1296,서울특별시 관악구,D3100 3-4SZ 청룡동 1534-39호,37.4793,126.9391,1
1297,서울특별시 관악구,D3100 4-4SZ 청룡동 1534-39호,37.4791,126.9393,1
1298,서울특별시 관악구,D3101 1-5R 청룡동 1562-4호,37.479,126.9444,1
1299,서울특별시 관악구,D3101 2-5UC 청룡동 1562-4호,37.4789,126.9445,1
1300,서울특별시 관악구,D3101 3-5UC 청룡동 1562-4호,37.4788,126.9444,1
1301,서울특별시 관악구,D3101 4-5UC 청룡동 1562-4호,37.479,126.9444,1
1302,서울특별시 관악구,D3101 5-5UC 청룡동 1562-4호,37.479,126.9443,1
1303,서울특별시 관악구,D3102 1-5RZ 청룡동 1572-10,37.478,126.9497,1
1304,서울특별시 관악구,D3102 2-5SZ 청룡동 1572-10,37.4782,126.9498,1
1305,서울특별시 관악구,D3102 3-5SZ 청룡동 1572-10,37.478,126.9499,1
1306,서울특별시 관악구,D3102 4-5SZ 청룡동 1572-10,37.4779,126.9497,1
1307,서울특별시 관악구,D3102 5-5SZ 청룡동 1572-10,37.4781,126.9495,1
1308,서울특별시 관악구,D3103 1-4R 청룡동 1585-7,37.4777,126.9481,1
1309,서울특별시 관악구,D3103 2-4S 청룡동 1585-7,37.4776,126.948,1
1310,서울특별시 관악구,D3103 3-4S 청룡동 1585-7,37.4778,126.948,1
1311,서울특별시 관악구,D3103 4-4S 청룡동 1585-7,37.4779,126.9482,1
1312,서울특별시 관악구,D3104 1-1R 서림동 98-427,37.4751,126.9431,1
1313,서울특별시 관악구,D3105 1-1R 청룡동 1558-1,37.4769,126.9441,1
1314,서울특별시 관악구,DA001 1-2R 낙성대동 1597-12,37.4774,126.9535,1
1315,서울특별시 관악구,DA001 2-2S 낙성대동 1597-33,37.4769,126.9533,1
1316,서울특별시 관악구,DA002 1-3S 성현동 41-763,37.4872,126.9547,1
1317,서울특별시 관악구,DA002 2-3S 성현동 41-763,37.4871,126.9547,1
1318,서울특별시 관악구,DA002 3-3S 성현동 41-763,37.4871,126.9546,1
1319,서울특별시 관악구,DA003 1-1RZ 은천동 933-1,37.4842,126.9415,1
1320,서울특별시 관악구,DA004 1-1R 인헌동 1637-22,37.4747,126.9662,1
1321,서울특별시 관악구,DA005 1-4RZ 중앙동 458-42,37.4864,126.9515,1
1322,서울특별시 관악구,DA005 2-4SZ 중앙동 458-42,37.4863,126.9516,1
1323,서울특별시 관악구,DA005 3-4SZ 중앙동 458-42,37.4864,126.9514,1
1324,서울특별시 관악구,DA005 4-4SZ 중앙동 458-42,37.4863,126.9514,1
1325,서울특별시 관악구,DA006 1-1R 청룡동 1525-27,37.4814,126.9407,1
1326,서울특별시 관악구,DA008 1-5RZ 난곡동 610-263,37.4736,126.9218,1
1327,서울특별시 관악구,DA008 2-5SZ 난곡동 610-263,37.4737,126.9219,1
1328,서울특별시 관악구,DA008 3-5SZ 난곡동 610-263,37.4737,126.9218,1
1329,서울특별시 관악구,DA008 4-5SZ 난곡동 610-263,37.4736,126.9219,1
1330,서울특별시 관악구,DA008 5-5SZ 난곡동 610-263,37.4736,126.9218,1
1331,서울특별시 관악구,DA009 1-5R 미성동 1481-21,37.4797,126.9143,1
1332,서울특별시 관악구,DA009 2-5S 미성동 1481-21,37.4796,126.9142,1
1333,서울특별시 관악구,DA009 3-5S 미성동 1481-21,37.4796,126.9143,1
1334,서울특별시 관악구,DA009 4-5S 미성동 1481-21,37.4797,126.9144,1
1335,서울특별시 관악구,DA009 5-5S 미성동 1481-21,37.4798,126.9143,1
1336,서울특별시 관악구,DA010 1-4R 삼성동 320-14,37.4626,126.9306,1
1337,서울특별시 관악구,DA010 2-4S 삼성동 320-14,37.4625,126.9306,1
1338,서울특별시 관악구,DA010 3-4S 삼성동 320-14,37.4627,126.9306,1
1339,서울특별시 관악구,DA010 4-4S 삼성동 320-14,37.4626,126.9307,1
1340,서울특별시 관악구,DA011 1-5RXXC 서림동 94-264,37.4761,126.9374,1
1341,서울특별시 관악구,DA011 2-5U 서림동 94-264,37.4759,126.9375,1
1342,서울특별시 관악구,DA011 3-5U 서림동 94-264,37.4761,126.9374,1
1343,서울특별시 관악구,DA011 4-5U 서림동 94-264,37.4761,126.9376,1
1344,서울특별시 관악구,DA011 5-5U 서림동 94-264,37.476,126.9374,1
1345,서울특별시 관악구,DA012 1-4SZ 서원동 10-29,37.4842,126.9344,1
1346,서울특별시 관악구,DA012 2-4SZ 서원동 10-29,37.4842,126.9343,1
1347,서울특별시 관악구,DA012 3-4SZ 서원동 10-29,37.4841,126.9344,1
1348,서울특별시 관악구,DA012 4-4SZ 서원동 10-29,37.4842,126.9345,1
1349,서울특별시 관악구,DA013 1-3SZ 신림동 1458-31,37.4873,126.9244,1
1350,서울특별시 관악구,DA013 2-3SZ 신림동 1458-31,37.4873,126.9244,1
1351,서울특별시 관악구,DA013 3-3SZ 신림동 1458-31,37.4873,126.9245,1
1352,서울특별시 관악구,DA014 1-2S 신사동 484-27,37.4856,126.9207,1
1353,서울특별시 관악구,DA014 2-2S 신사동 484-27,37.4856,126.9208,1
1354,서울특별시 관악구,DA015 1-3S 신원동 1628-43,37.4794,126.9264,1
1355,서울특별시 관악구,DA015 2-3S 신원동 1628-43,37.4794,126.9265,1
1356,서울특별시 관악구,DA015 3-3S 신원동 1628-43,37.4794,126.9265,1
1357,서울특별시 관악구,DA016 1-2R 조원동 567-1,37.481,126.9061,1
1358,서울특별시 관악구,DA016 2-2S 조원동 567-1,37.4812,126.9059,1
1359,서울특별시 관악구,DA017 1-1R 성현동 41-421,37.4872,126.9521,1
1360,서울특별시 관악구,DA018 1-5R 은천동 635-89,37.4899,126.9432,1
1361,서울특별시 관악구,DA018 2-5S 은천동 635-89,37.4898,126.9433,1
1362,서울특별시 관악구,DA018 3-5S 은천동 635-89,37.4898,126.9432,1
1363,서울특별시 관악구,DA018 4-5S 은천동 635-89,37.4899,126.9431,1
1364,서울특별시 관악구,DA019 1-1R 인헌동 180-180,37.4709,126.9701,1
1365,서울특별시 관악구,DA020 1-3S 보라매동 968-19,37.4874,126.9333,1
1366,서울특별시 관악구,DA020 2-3S 보라매동 968-19,37.4873,126.9333,1
1367,서울특별시 관악구,DA020 3-3S 보라매동 968-19,37.4873,126.9332,1
1368,서울특별시 관악구,DA021 1-5R 은천동 941-1,37.4861,126.9406,1
1369,서울특별시 관악구,DA021 2-5S 은천동 941-1,37.4862,126.9407,1
1370,서울특별시 관악구,DA021 3-5S 은천동 941-1,37.486,126.9406,1
1371,서울특별시 관악구,DA021 4-5S 은천동 941-1,37.4861,126.9408,1
1372,서울특별시 관악구,DA021 5-5S 은천동 941-1,37.4861,126.9405,1
1373,서울특별시 관악구,DA022 1-5RZ 은천동 939-15,37.4868,126.9394,1
1374,서울특별시 관악구,DA022 2-5SZ 은천동 939-15,37.4868,126.9393,1
1375,서울특별시 관악구,DA022 3-5SZ 은천동 939-15,37.4867,126.9394,1
1376,서울특별시 관악구,DA022 4-5SZ 은천동 939-15,37.4868,126.9396,1
1377,서울특별시 관악구,DA022 5-5SZ 은천동 939-15,37.4869,126.9395,1
1378,서울특별시 관악구,DA023 1-1R 은천동 926-23,37.4829,126.9436,1
1379,서울특별시 관악구,DA024 1-3SZ 은천동 622-87,37.4874,126.944,1
1380,서울특별시 관악구,DA024 2-3SZ 은천동 622-87,37.4873,126.944,1
1381,서울특별시 관악구,DA024 3-3SZ 은천동 622-87,37.4874,126.944,1
1382,서울특별시 관악구,DA025 1-3SZ 은천동 635-349,37.4876,126.9408,1
1383,서울특별시 관악구,DA025 2-3SZ 은천동 635-349,37.4877,126.941,1
1384,서울특별시 관악구,DA025 3-3SZ 은천동 635-349,37.4875,126.941,1
1385,서울특별시 관악구,DA026 1-1RZ 성현동 41-96,37.489,126.953,1
1386,서울특별시 관악구,DA027 1-1R 성현동 480-107,37.4874,126.9476,1
1387,서울특별시 관악구,DA028 1-1R 성현동 1703-6,37.4871,126.9569,1
1388,서울특별시 관악구,DA029 1-5R 중앙동 871-63,37.4825,126.9519,1
1389,서울특별시 관악구,DA029 2-5S 중앙동 871-63,37.4826,126.9519,1
1390,서울특별시 관악구,DA029 3-5S 중앙동 871-63,37.4824,126.9519,1
1391,서울특별시 관악구,DA029 4-5S 중앙동 871-63,37.4825,126.9517,1
1392,서울특별시 관악구,DA029 5-5S 중앙동 871-63,37.4824,126.9518,1
1393,서울특별시 관악구,DA030 1-4RZ 중앙동 889-41,37.4834,126.9466,1
1394,서울특별시 관악구,DA030 2-4SZ 중앙동 889-41,37.4833,126.9466,1
1395,서울특별시 관악구,DA030 3-4SZ 중앙동 889-41,37.4834,126.9467,1
1396,서울특별시 관악구,DA030 4-4SZ 중앙동 889-41,37.4835,126.9466,1
1397,서울특별시 관악구,DA031 1-3S 청림동 1-233,37.491,126.9581,1
1398,서울특별시 관악구,DA031 2-3S 청림동 1-233,37.4909,126.9581,1
1399,서울특별시 관악구,DA031 3-3S 청림동 1-233,37.4909,126.958,1
1400,서울특별시 관악구,DA032 1-5RXXC 행운동 20-20 (화단앞),37.4852,126.9572,1
1401,서울특별시 관악구,DA032 2-5U 행운동 20-20 (화단앞),37.4853,126.9572,1
1402,서울특별시 관악구,DA032 3-5U 행운동 20-20 (화단앞),37.4851,126.957,1
1403,서울특별시 관악구,DA032 4-5U 행운동 20-20 (화단앞),37.4852,126.957,1
1404,서울특별시 관악구,DA032 5-5U 행운동 20-20 (화단앞),37.4852,126.9573,1
1405,서울특별시 관악구,DA033 1-1R 행운동 1690-152,37.4764,126.9659,1
1406,서울특별시 관악구,DA034 1-3S 행운동 100-352,37.481,126.9591,1
1407,서울특별시 관악구,DA034 2-3S 행운동 100-352,37.4808,126.9591,1
1408,서울특별시 관악구,DA034 3-3S 행운동 100-352,37.481,126.9591,1
1409,서울특별시 관악구,DA035 1-1R 행운동 62-13,37.4832,126.9554,1
1410,서울특별시 관악구,DA036 1-5R 행운동 1678-1,37.4801,126.9594,1
1411,서울특별시 관악구,DA036 2-5S 행운동 1678-1,37.4802,126.9593,1
1412,서울특별시 관악구,DA036 3-5S 행운동 1678-1,37.48,126.9593,1
1413,서울특별시 관악구,DA036 4-5S 행운동 1678-1,37.4801,126.9595,1
1414,서울특별시 관악구,DA036 5-5S 행운동 1678-1,37.4802,126.9594,1
1415,서울특별시 관악구,DA037 1-5R 행운동 1674-4,37.4795,126.9578,1
1416,서울특별시 관악구,DA037 2-5SC 행운동 1674-4,37.4796,126.9576,1
1417,서울특별시 관악구,DA037 3-5SC 행운동 1674-4,37.4796,126.9579,1
1418,서울특별시 관악구,DA037 4-5S 행운동 1674-4,37.4795,126.958,1
1419,서울특별시 관악구,DA037 5-5S 행운동 1674-4,37.4794,126.9578,1
1420,서울특별시 관악구,DA038 1-1R 청룡동 877-30,37.4795,126.9496,1
1421,서울특별시 관악구,DA039 1-5RX 청룡동 895-18,37.4813,126.9462,1
1422,서울특별시 관악구,DA039 2-5SZ 청룡동 895-18,37.4812,126.9462,1
1423,서울특별시 관악구,DA039 3-5SZ 청룡동 895-18,37.4814,126.9462,1
1424,서울특별시 관악구,DA039 4-5SZ 청룡동 895-18,37.4813,126.9464,1
1425,서울특별시 관악구,DA039 5-5SZ 청룡동 895-18,37.4813,126.9461,1
1426,서울특별시 관악구,DA040 1-1RZ 청룡동 1578-2,37.4777,126.9456,1
1427,서울특별시 관악구,DA041 1-5R 낙성대동 1605-6,37.4769,126.9542,1
1428,서울특별시 관악구,DA041 2-5S 낙성대동 1605-6,37.4768,126.9543,1
1429,서울특별시 관악구,DA041 3-5S 낙성대동 1605-6,37.4768,126.9542,1
1430,서울특별시 관악구,DA041 4-5S 낙성대동 1605-6,37.477,126.9542,1
1431,서울특별시 관악구,DA041 5-5S 낙성대동 1605-6,37.4769,126.9541,1
1432,서울특별시 관악구,DA042 1-5R 낙성대동 853-2,37.4804,126.9533,1
1433,서울특별시 관악구,DA042 2-5S 낙성대동 853-2,37.4805,126.9533,1
1434,서울특별시 관악구,DA042 3-5S 낙성대동 853-2,37.4803,126.9534,1
1435,서울특별시 관악구,DA042 4-5S 낙성대동 853-2,37.4802,126.9533,1
1436,서울특별시 관악구,DA042 5-5S 낙성대동 853-2,37.4804,126.9531,1
1437,서울특별시 관악구,DA043 1-4RXXC 인헌동 1631-1,37.4767,126.9626,1
1438,서울특별시 관악구,DA043 2-4U 인헌동 1631-1,37.4766,126.9625,1
1439,서울특별시 관악구,DA043 3-4U 인헌동 1631-1,37.4767,126.9625,1
1440,서울특별시 관악구,DA043 4-4U 인헌동 1631-1,37.4766,126.9627,1
1441,서울특별시 관악구,DA044 1-4R 인헌동 180-242,37.4688,126.969,1
1442,서울특별시 관악구,DA044 2-4SC 인헌동 180-242,37.4686,126.9691,1
1443,서울특별시 관악구,DA044 3-4SC 인헌동 180-242,37.4688,126.9692,1
1444,서울특별시 관악구,DA044 4-4SC 인헌동 180-242,37.4689,126.9689,1
1445,서울특별시 관악구,DA045 1-3S 인헌동 196-188,37.4725,126.963,1
1446,서울특별시 관악구,DA045 2-3S 인헌동 196-188,37.4725,126.9632,1
1447,서울특별시 관악구,DA045 3-3S 인헌동 196-188,37.4725,126.9631,1
1448,서울특별시 관악구,DA046 1-1R 남현동 1053-1,37.4754,126.9716,1
1449,서울특별시 관악구,DA047 1-1R 남현동 1078-7 (맞은편),37.4735,126.9759,1
1450,서울특별시 관악구,DA048 1-4R 신림동 1412-2,37.4849,126.9335,1
1451,서울특별시 관악구,DA048 2-4S 신림동 1412-2,37.4848,126.9332,1
1452,서울특별시 관악구,DA048 3-4S 신림동 1412-2,37.4849,126.9337,1
1453,서울특별시 관악구,DA048 4-4S 신림동 1412-2,37.4851,126.9335,1
1454,서울특별시 관악구,DA049 1-5RXXC 신림동 1463-65,37.4849,126.9255,1
1455,서울특별시 관악구,DA049 2-5U 신림동 1463-65,37.485,126.9254,1
1456,서울특별시 관악구,DA049 3-5U 신림동 1463-65,37.4847,126.9257,1
1457,서울특별시 관악구,DA049 4-5U 신림동 1463-65,37.4848,126.9253,1
1458,서울특별시 관악구,DA049 5-5U 신림동 1463-65,37.4849,126.9256,1
1459,서울특별시 관악구,DA050 1-1R 신사동 465-46,37.4833,126.9215,1
1460,서울특별시 관악구,DA051 1-3S 신사동 512-6,37.4845,126.9168,1
1461,서울특별시 관악구,DA051 2-3S 신사동 512-6,37.4845,126.9169,1
1462,서울특별시 관악구,DA051 3-3S 신사동 512-6,37.4844,126.9168,1
1463,서울특별시 관악구,DA052 1-5RXXC 조원동 1655-14,37.4828,126.9024,1
1464,서울특별시 관악구,DA052 2-5S 조원동 1655-14,37.4829,126.9025,1
1465,서울특별시 관악구,DA052 3-5S 조원동 1655-14,37.4827,126.9025,1
1466,서울특별시 관악구,DA052 4-5S 조원동 1655-14,37.4828,126.9023,1
1467,서울특별시 관악구,DA052 5-5S 조원동 1655-14,37.4827,126.9024,1
1468,서울특별시 관악구,DA053 1-5R 조원동 1667-22 (농협앞),37.4797,126.9024,1
1469,서울특별시 관악구,DA053 2-5S 조원동 1667-22 (농협앞),37.4797,126.9021,1
1470,서울특별시 관악구,DA053 3-5S 조원동 1667-22 (농협앞),37.4796,126.9024,1
1471,서울특별시 관악구,DA053 4-5S 조원동 1667-22 (농협앞),37.4798,126.9025,1
1472,서울특별시 관악구,DA053 5-5S 조원동 1667-22 (농협앞),37.4799,126.9023,1
1473,서울특별시 관악구,DA054 1-5RZ 미성동 산197-61,37.4778,126.9165,1
1474,서울특별시 관악구,DA054 2-5SZ 미성동 산197-61,37.4779,126.9165,1
1475,서울특별시 관악구,DA054 3-5SZ 미성동 산197-61,37.4778,126.9164,1
1476,서울특별시 관악구,DA054 4-5SZ 미성동 산197-61,37.4777,126.9166,1
1477,서울특별시 관악구,DA054 5-5SZ 미성동 산197-61,37.4779,126.9167,1
1478,서울특별시 관악구,DA055 1-5R 미성동 598-337(성진리치빌 앞),37.4759,126.9209,1
1479,서울특별시 관악구,DA055 2-5S 미성동 598-337(성진리치빌 앞),37.4759,126.9209,1
1480,서울특별시 관악구,DA055 3-5S 미성동 598-337(성진리치빌 앞),37.4758,126.921,1
1481,서울특별시 관악구,DA055 4-5S 미성동 598-337(성진리치빌 앞),37.4759,126.921,1
1482,서울특별시 관악구,DA055 5-5S 미성동 598-337(성진리치빌 앞),37.4758,126.9208,1
1483,서울특별시 관악구,DA056 1-4R 미성동 1563-85,37.4744,126.9163,1
1484,서울특별시 관악구,DA056 2-4S 미성동 1563-85,37.4744,126.9163,1
1485,서울특별시 관악구,DA056 3-4S 미성동 1563-85,37.4745,126.9163,1
1486,서울특별시 관악구,DA056 4-4S 미성동 1563-85,37.4745,126.9161,1
1487,서울특별시 관악구,DA057 1-3S 미성동 744-16,37.4739,126.9126,1
1488,서울특별시 관악구,DA057 2-3S 미성동 744-16,37.4738,126.9127,1
1489,서울특별시 관악구,DA057 3-3S 미성동 744-16,37.4739,126.9126,1
1490,서울특별시 관악구,DA058 1-2S 미성동 729,37.4737,126.916,1
1491,서울특별시 관악구,DA058 2-2S 미성동 729,37.4737,126.9159,1
1492,서울특별시 관악구,DA059 1-4SZ 난곡동 610-382,37.4763,126.9241,1
1493,서울특별시 관악구,DA059 2-4SZ 난곡동 610-382,37.4763,126.924,1
1494,서울특별시 관악구,DA059 3-4SZ 난곡동 610-382,37.4764,126.9241,1
1495,서울특별시 관악구,DA059 4-4SZ 난곡동 610-382,37.4764,126.924,1
1496,서울특별시 관악구,DA060 1-4RXCL 난곡동 637-8,37.4706,126.9204,1
1497,서울특별시 관악구,DA060 2-4S 난곡동 637-8,37.4706,126.9207,1
1498,서울특별시 관악구,DA060 3-4S 난곡동 637-8,37.4707,126.9203,1
1499,서울특별시 관악구,DA060 4-4S 난곡동 637-8,37.4706,126.9206,1
1500,서울특별시 관악구,DA061 1-1R 난곡동 697-18 (맞은편),37.4675,126.9198,1
1501,서울특별시 관악구,DA061 2-4S 난곡동 697-18(맞은편),37.4674,126.9199,1
1502,서울특별시 관악구,DA061 3-4S 난곡동 697-18(맞은편),37.4674,126.9198,1
1503,서울특별시 관악구,DA061 4-4S 난곡동 697-18(맞은편),37.4675,126.9198,1
1504,서울특별시 관악구,DA062 1-3S 난곡동 646-141,37.4681,126.9244,1
1505,서울특별시 관악구,DA062 2-3S 난곡동 646-141,37.4682,126.9245,1
1506,서울특별시 관악구,DA062 3-3S 난곡동 646-141,37.4681,126.9244,1
1507,서울특별시 관악구,DA063 1-4R 난곡동 652-164,37.4673,126.9225,1
1508,서울특별시 관악구,DA063 2-4S 난곡동 652-164,37.4672,126.9226,1
1509,서울특별시 관악구,DA063 3-4S 난곡동 652-164,37.4672,126.9224,1
1510,서울특별시 관악구,DA063 4-4S 난곡동 652-164,37.4674,126.9224,1
1511,서울특별시 관악구,DA064 1-4R 난곡동 693-8,37.4664,126.9196,1
1512,서울특별시 관악구,DA064 2-4S 난곡동 693-8,37.4664,126.9197,1
1513,서울특별시 관악구,DA064 3-4S 난곡동 693-8,37.4665,126.9197,1
1514,서울특별시 관악구,DA064 4-4S 난곡동 693-8,37.4664,126.9196,1
1515,서울특별시 관악구,DA065 1-4R 난향동 675-312,37.4607,126.9154,1
1516,서울특별시 관악구,DA065 2-4SZ 난향동 675-312,37.4607,126.9153,1
1517,서울특별시 관악구,DA065 3-4SZ 난향동 675-312,37.4606,126.9153,1
1518,서울특별시 관악구,DA065 4-4SZ 난향동 675-312,37.4608,126.9154,1
1519,서울특별시 관악구,DA066 1-3S 난향동 685-49,37.4653,126.9188,1
1520,서울특별시 관악구,DA066 2-3S 난향동 685-49,37.4653,126.9189,1
1521,서울특별시 관악구,DA066 3-3S 난향동 685-49,37.4654,126.9187,1
1522,서울특별시 관악구,DA067 1-5RXC 서원동 10-388,37.4847,126.9357,1
1523,서울특별시 관악구,DA067 2-5S 서원동 10-388,37.4848,126.9357,1
1524,서울특별시 관악구,DA067 3-5S 서원동 10-388,37.4846,126.9359,1
1525,서울특별시 관악구,DA067 4-5S 서원동 10-388,37.4845,126.9357,1
1526,서울특별시 관악구,DA067 5-5S 서원동 10-388,37.4847,126.9355,1
1527,서울특별시 관악구,DA068 1-4RXC 행운동 1724-2,37.4836,126.9596,1
1528,서울특별시 관악구,DA068 2-4U 행운동 1724-2,37.4835,126.9595,1
1529,서울특별시 관악구,DA068 3-4S 행운동 1724-2,37.4836,126.9597,1
1530,서울특별시 관악구,DA068 4-4S 행운동 1724,37.4837,126.9595,1
1531,서울특별시 관악구,DA069 1-5RL 서원동 92-296,37.4799,126.935,1
1532,서울특별시 관악구,DA069 2-5S 서원동 92-296,37.4798,126.9351,1
1533,서울특별시 관악구,DA069 3-5S 서원동 92-296,37.48,126.935,1
1534,서울특별시 관악구,DA069 4-5S 서원동 92-296,37.4799,126.9349,1
1535,서울특별시 관악구,DA069 5-5S 서원동 92-296,37.4799,126.9351,1
1536,서울특별시 관악구,DA070 1-4R 신원동 1578-42 (LB003앞),37.4831,126.925,1
1537,서울특별시 관악구,DA070 2-4SC 신원동 1578-42 (LB003앞),37.4831,126.9251,1
1538,서울특별시 관악구,DA070 3-4S 신원동 1578-42 (LB003앞),37.4831,126.925,1
1539,서울특별시 관악구,DA070 4-4SC 신원동 1578-42 (LB003앞),37.483,126.925,1
1540,서울특별시 관악구,DA071 1-5RZ 신원동 1590-1,37.4829,126.9259,1
1541,서울특별시 관악구,DA071 2-5SZ 신원동 1590-1,37.483,126.9259,1
1542,서울특별시 관악구,DA071 3-5SZ 신원동 1590-1,37.483,126.926,1
1543,서울특별시 관악구,DA071 4-5SZ 신원동 1590-1,37.4828,126.926,1
1544,서울특별시 관악구,DA071 5-5SZ 신원동 1590-1,37.4828,126.9259,1
1545,서울특별시 관악구,DA072 1-4R 신원동 433-9,37.4789,126.9253,1
1546,서울특별시 관악구,DA072 2-4S 신원동 433-9,37.4789,126.9252,1
1547,서울특별시 관악구,DA072 3-4S 신원동 433-9,37.4789,126.9253,1
1548,서울특별시 관악구,DA072 4-4S 신원동 433-9,37.4789,126.9254,1
1549,서울특별시 관악구,DA073 1-1R 신원동 1635-44,37.4805,126.9287,1
1550,서울특별시 관악구,DA074 1-1RL 서림동 105-29,37.4739,126.9391,1
1551,서울특별시 관악구,DA075 1-5RXC 서림동 103-202,37.4709,126.9409,1
1552,서울특별시 관악구,DA075 2-5U 서림동 103-202,37.4709,126.941,1
1553,서울특별시 관악구,DA075 3-5UC 서림동 103-202,37.4709,126.9408,1
1554,서울특별시 관악구,DA075 4-5UC 서림동 103-202,37.471,126.9408,1
1555,서울특별시 관악구,DA075 5-5U 서림동 103-202,37.4709,126.9404,1
1556,서울특별시 관악구,DA076 1-4R 서림동 408-122,37.4752,126.935,1
1557,서울특별시 관악구,DA076 2-4S 서림동 408-122,37.4751,126.935,1
1558,서울특별시 관악구,DA076 3-4S 서림동 408-122,37.4752,126.935,1
1559,서울특별시 관악구,DA076 4-4S 서림동 408-122,37.4752,126.9349,1
1560,서울특별시 관악구,DA077 1-1R 서림동 102-29,37.4737,126.9415,1
1561,서울특별시 관악구,DA078 1-1R 삼성동 306-115,37.4636,126.9332,1
1562,서울특별시 관악구,DA080 1-1R 삼성동 378-1,37.4726,126.93,1
1563,서울특별시 관악구,DA081 1-1R 삼성동 401-18,37.4741,126.9312,1
1564,서울특별시 관악구,DA082 1-1RZ 대학동 1522-11,37.4698,126.9354,1
1565,서울특별시 관악구,DA083 1-1R 대학동 산28-9,37.4644,126.9402,1
1566,서울특별시 관악구,DA084 1-1R 대학동 255-51,37.4665,126.9363,1
1567,서울특별시 관악구,DB001 1-3R 보라매동 645-132,37.488,126.9373,1
1568,서울특별시 관악구,DB001 2-3S 보라매동 645-132,37.488,126.9373,1
1569,서울특별시 관악구,DB001 3-3SC 보라매동 645-132,37.4881,126.9372,1
1570,서울특별시 관악구,DB002 1-4RZ 보라매동 715-100,37.4935,126.9301,1
1571,서울특별시 관악구,DB002 2-4SCZ 보라매동 715-100,37.4935,126.93,1
1572,서울특별시 관악구,DB002 3-4SCZ 보라매동 715-100,37.4934,126.9301,1
1573,서울특별시 관악구,DB002 4-4SCZ 보라매동 715-100,37.4935,126.9301,1
1574,서울특별시 관악구,DB004 1-4R 은천동 908-6,37.4843,126.9442,1
1575,서울특별시 관악구,DB004 2-4SC 은천동 908-6,37.4843,126.9442,1
1576,서울특별시 관악구,DB004 3-4SC 은천동 908-6,37.4843,126.9443,1
1577,서울특별시 관악구,DB004 4-4SC 은천동 908-6,37.4843,126.9442,1
1578,서울특별시 관악구,DB005 1-1RLZ 은천동 902-23,37.4861,126.9441,1
1579,서울특별시 관악구,DB006 1-1R 은천동 635-356,37.4879,126.9416,1
1580,서울특별시 관악구,DB007 1-4R 은천동 931-11,37.4835,126.941,1
1581,서울특별시 관악구,DB007 2-4S 은천동 931-11,37.4834,126.9411,1
1582,서울특별시 관악구,DB007 3-4SC 은천동 931-11,37.4834,126.941,1
1583,서울특별시 관악구,DB007 4-4SC 은천동 931-11,37.4835,126.941,1
1584,서울특별시 관악구,DB008 1-4R 성현동 41-27,37.4878,126.9555,1
1585,서울특별시 관악구,DB008 2-4SCZ 성현동 41-27,37.4877,126.9555,1
1586,서울특별시 관악구,DB008 3-4SCZ 성현동 41-27,37.4878,126.9554,1
1587,서울특별시 관악구,DB008 4-4SCZ 성현동 41-27,37.4878,126.9555,1
1588,서울특별시 관악구,DB009 1-1RX 성현동 484-7,37.4901,126.9467,1
1589,서울특별시 관악구,DB010 1-1R 성현동 468-1,37.4882,126.9487,1
1590,서울특별시 관악구,DB011 1-1R 성현동 41-154,37.4872,126.9536,1
1591,서울특별시 관악구,DB012 1-1R 중앙동 56-99,37.4839,126.953,1
1592,서울특별시 관악구,DB013 1-5R 중앙동 872-5,37.4834,126.9494,1
1593,서울특별시 관악구,DB013 2-5SC 중앙동 872-5,37.4834,126.9494,1
1594,서울특별시 관악구,DB013 3-5SC 중앙동 872-5,37.4834,126.9494,1
1595,서울특별시 관악구,DB013 4-5SC 중앙동 872-5,37.4834,126.9494,1
1596,서울특별시 관악구,DB013 5-5S 중앙동 872-5,37.4834,126.9494,1
1597,서울특별시 관악구,DB014 1-2SC 중앙동 41-555,37.4858,126.9524,1
1598,서울특별시 관악구,DB014 2-2S 중앙동 41-555,37.4859,126.9524,1
1599,서울특별시 관악구,DB015 1-4R 청림동 1-727,37.4907,126.9587,1
1600,서울특별시 관악구,DB015 2-4SC 청림동 1-727,37.4907,126.9587,1
1601,서울특별시 관악구,DB015 3-4SC 청림동 1-727,37.4907,126.9587,1
1602,서울특별시 관악구,DB015 4-4S 청림동 1-727,37.4906,126.9587,1
1603,서울특별시 관악구,DB016 1-1R 청림동 14-36,37.4881,126.9582,1
1604,서울특별시 관악구,DB017 1-1RXL 행운동 35-2,37.4845,126.9561,1
1605,서울특별시 관악구,DB017 2-2S 행운동 35-2,37.4847,126.9561,1
1606,서울특별시 관악구,DB018 1-2R 행운동 100-223,37.4821,126.9603,1
1607,서울특별시 관악구,DB018 2-2S 행운동 100-223,37.482,126.9602,1
1608,서울특별시 관악구,DB019 1-4R 행운동 852-5,37.4812,126.9535,1
1609,서울특별시 관악구,DB019 2-4S 행운동 852-5,37.4812,126.9534,1
1610,서울특별시 관악구,DB019 3-4S 행운동 852-5,37.4811,126.9536,1
1611,서울특별시 관악구,DB019 4-4S 행운동 852-5,37.4813,126.9535,1
1612,서울특별시 관악구,DB020 1-4R 보라매동 969-24,37.4885,126.9312,1
1613,서울특별시 관악구,DB020 2-4SC 보라매동 969-24,37.4885,126.9313,1
1614,서울특별시 관악구,DB020 3-4S 보라매동 969-24,37.4885,126.9313,1
1615,서울특별시 관악구,DB020 4-4SC 보라매동 969-24,37.4885,126.9312,1
1616,서울특별시 관악구,DB021 1-5R 청룡동 878-7,37.4796,126.9485,1
1617,서울특별시 관악구,DB021 2-5SC 청룡동 878-7,37.4796,126.9486,1
1618,서울특별시 관악구,DB021 3-5SC 청룡동 878-7,37.4797,126.9485,1
1619,서울특별시 관악구,DB021 4-5SC 청룡동 878-7,37.4796,126.9486,1
1620,서울특별시 관악구,DB021 5-5SC 청룡동 878-7,37.4796,126.9485,1
1621,서울특별시 관악구,DB022 1-1R 청룡동 913-42,37.4816,126.9454,1
1622,서울특별시 관악구,DB023 1-4R 청룡동 1527-3,37.4817,126.9418,1
1623,서울특별시 관악구,DB023 2-4U 청룡동 1527-3,37.4818,126.9418,1
1624,서울특별시 관악구,DB023 3-4UC 청룡동 1527-3,37.4817,126.9419,1
1625,서울특별시 관악구,DB023 4-4U 청룡동 1527-3,37.4818,126.9418,1
1626,서울특별시 관악구,DB024 1-5R 낙성대동 1597-10,37.4781,126.9535,1
1627,서울특별시 관악구,DB024 2-5S 낙성대동 1597-10,37.4782,126.9535,1
1628,서울특별시 관악구,DB024 3-5S 낙성대동 1597-10,37.478,126.9535,1
1629,서울특별시 관악구,DB024 4-5S 낙성대동 1597-10,37.4781,126.9533,1
1630,서울특별시 관악구,DB024 5-5S 낙성대동 1597-10,37.4781,126.9536,1
1631,서울특별시 관악구,DB025 1-5R 낙성대동 1603-3,37.4791,126.9536,1
1632,서울특별시 관악구,DB025 2-5S 낙성대동 1603-3,37.4791,126.9537,1
1633,서울특별시 관악구,DB025 3-5SC 낙성대동 1603-3,37.4791,126.9536,1
1634,서울특별시 관악구,DB025 4-5S 낙성대동 1603-3,37.4791,126.9536,1
1635,서울특별시 관악구,DB025 5-5SC 낙성대동 1603-3,37.4792,126.9536,1
1636,서울특별시 관악구,DB026 1-1RZ 낙성대동 1602-34,37.4793,126.9549,1
1637,서울특별시 관악구,DB027 1-4RL 인헌동 1636-2,37.4748,126.9652,1
1638,서울특별시 관악구,DB027 2-4S 인헌동 1636-2,37.4748,126.9653,1
1639,서울특별시 관악구,DB027 3-4S 인헌동 1636-2,37.4748,126.9652,1
1640,서울특별시 관악구,DB027 4-4S 인헌동 1636-2,37.4748,126.9652,1
1641,서울특별시 관악구,DB028 1-1R 인헌동 1651-20,37.4741,126.9694,1
1642,서울특별시 관악구,DB029 1-4R 인헌동 178-274,37.4718,126.9688,1
1643,서울특별시 관악구,DB029 2-4S 인헌동 178-274,37.4717,126.9689,1
1644,서울특별시 관악구,DB029 3-4S 인헌동 178-274,37.4718,126.9688,1
1645,서울특별시 관악구,DB029 4-4SC 인헌동 178-274,37.4717,126.9688,1
1646,서울특별시 관악구,DB030 1-4R 인헌동 1646-50,37.4721,126.9694,1
1647,서울특별시 관악구,DB030 2-4SC 인헌동 1646-50,37.4721,126.9694,1
1648,서울특별시 관악구,DB030 3-4SC 인헌동 1646-50,37.4721,126.9693,1
1649,서울특별시 관악구,DB030 4-4SC 인헌동 1646-50,37.4721,126.9693,1
1650,서울특별시 관악구,DB031 1-4R 남현동 1072-60,37.473,126.9727,1
1651,서울특별시 관악구,DB031 2-4SC 남현동 1072-60,37.4729,126.9727,1
1652,서울특별시 관악구,DB031 3-4SC 남현동 1072-60,37.473,126.9727,1
1653,서울특별시 관악구,DB031 4-4SC 남현동 1072-60,37.473,126.9728,1
1654,서울특별시 관악구,DB032 1-4R 남현동 602-237,37.4733,126.9809,1
1655,서울특별시 관악구,DB032 2-4SC 남현동 602-237,37.4733,126.9809,1
1656,서울특별시 관악구,DB032 3-4SC 남현동 602-237,37.4734,126.9809,1
1657,서울특별시 관악구,DB032 4-4SC 남현동 602-237,37.4733,126.981,1
1658,서울특별시 관악구,DB033 1-4RZ 남현동 1086-1,37.4748,126.9777,1
1659,서울특별시 관악구,DB033 2-4SCZ 남현동 1086-1,37.4748,126.9778,1
1660,서울특별시 관악구,DB033 3-4SCZ 남현동 1086-1,37.4748,126.9776,1
1661,서울특별시 관악구,DB033 4-4SCZ 남현동 1086-1,37.4747,126.9777,1
1662,서울특별시 관악구,DB034 1-1R 신림동 1451-8,37.4883,126.9251,1
1663,서울특별시 관악구,DB035 1-1R 신림동 1429-29,37.4891,126.9273,1
1664,서울특별시 관악구,DB036 1-1R 신림동 1413-1,37.486,126.9335,1
1665,서울특별시 관악구,DB037 1-1R 신사동 480-15,37.4859,126.9198,1
1666,서울특별시 관악구,DB038 2-5S 신사동 462-5,37.4864,126.9227,1
1667,서울특별시 관악구,DB038 3-5S 신사동 462-5,37.4864,126.9229,1
1668,서울특별시 관악구,DB038 4-5S 신사동 462-5,37.4866,126.9228,1
1669,서울특별시 관악구,DB038 5-5S 신사동 462-5,37.4865,126.923,1
1670,서울특별시 관악구,DB039 1-5R 신사동 527-2,37.4819,126.9145,1
1671,서울특별시 관악구,DB039 2-5S 신사동 527-2,37.4821,126.9144,1
1672,서울특별시 관악구,DB039 3-5S 신사동 527-2,37.482,126.9148,1
1673,서울특별시 관악구,DB039 4-5S 신사동 527-2,37.4817,126.9145,1
1674,서울특별시 관악구,DB039 5-5S 신사동 527-2,37.4819,126.9142,1
1675,서울특별시 관악구,DB040 1-4R 조원동 1650-13,37.4835,126.9074,1
1676,서울특별시 관악구,DB040 2-4S 조원동 1650-13,37.4836,126.9073,1
1677,서울특별시 관악구,DB040 3-4S 조원동 1650-13,37.4836,126.9075,1
1678,서울특별시 관악구,DB040 4-4UC 조원동 1650-13,37.4834,126.9073,1
1679,서울특별시 관악구,DB041 1-1R 조원동 570-8,37.4824,126.9064,1
1680,서울특별시 관악구,DB042 1-1R 조원동 1648(9동앞),37.4847,126.9055,1
1681,서울특별시 관악구,DB043 1-1R 미성동 607-22,37.4746,126.9178,1
1682,서울특별시 관악구,DB044 1-5R 미성동 598-11,37.478,126.9212,1
1683,서울특별시 관악구,DB044 2-5S 미성동 598-11,37.4781,126.9211,1
1684,서울특별시 관악구,DB044 3-5S 미성동 598-11,37.478,126.9211,1
1685,서울특별시 관악구,DB044 4-5S 미성동 598-11,37.478,126.9212,1
1686,서울특별시 관악구,DB044 5-5S 미성동 598-11,37.478,126.9212,1
1687,서울특별시 관악구,DB045 1-5R 미성동 744-3,37.4734,126.9127,1
1688,서울특별시 관악구,DB045 2-5SC 미성동 744-3,37.4734,126.9128,1
1689,서울특별시 관악구,DB045 3-5SC 미성동 744-3,37.4734,126.9126,1
1690,서울특별시 관악구,DB045 4-5SC 미성동 744-3,37.4735,126.9127,1
1691,서울특별시 관악구,DB045 5-5S 미성동 744-3,37.4734,126.9127,1
1692,서울특별시 관악구,DB046 1-4R 미성동 610-386,37.4767,126.9233,1
1693,서울특별시 관악구,DB046 2-4SC 미성동 610-386,37.4766,126.9234,1
1694,서울특별시 관악구,DB046 3-4S 미성동 610-386,37.4767,126.9234,1
1695,서울특별시 관악구,DB046 4-4S 미성동 610-386,37.4767,126.9233,1
1696,서울특별시 관악구,DB047 1-4R 난곡동 610-77,37.4751,126.9205,1
1697,서울특별시 관악구,DB047 2-4SC 난곡동 610-77,37.4751,126.9206,1
1698,서울특별시 관악구,DB047 3-4SC 난곡동 610-77,37.4751,126.9205,1
1699,서울특별시 관악구,DB047 4-4SC 난곡동 610-77,37.4751,126.9206,1
1700,서울특별시 관악구,DB048 1-1R 난곡동 646-258,37.4696,126.9248,1
1701,서울특별시 관악구,DB049 1-3SCZ 난곡동 652-13,37.4672,126.924,1
1702,서울특별시 관악구,DB049 2-3SZ 난곡동 652-13,37.4672,126.9239,1
1703,서울특별시 관악구,DB049 3-3SCZ 난곡동 652-13,37.4673,126.9238,1
1704,서울특별시 관악구,DB050 1-4R 난곡동 654-6,37.4686,126.9213,1
1705,서울특별시 관악구,DB050 2-4SC 난곡동 654-6,37.4686,126.9212,1
1706,서울특별시 관악구,DB050 3-4SC 난곡동 654-6,37.4686,126.9213,1
1707,서울특별시 관악구,DB050 4-4SC 난곡동 654-6,37.4685,126.9213,1
1708,서울특별시 관악구,DB051 1-3RZ 난향동 675-338,37.4599,126.9149,1
1709,서울특별시 관악구,DB051 2-3SCZ 난향동 675-338,37.4599,126.915,1
